[{"name":"La Liégeoise","street":"digue de mer","postalcode":"62930","locality":"Wimereux","country":"France","address":"digue de mer ,62930 Wimereux ,France","chef":"Benjamin Delpierre","price":"Prix - De 49 € à 79 €","url":"https://restaurant.michelin.fr/2fa1zgi202/la-liegeoise-wimereux","isOnLaF":false},{"name":"Le Saint-James","street":"3 pl. Camille-Hostein","postalcode":"33270","locality":"BOULIAC","country":"France","address":"3 pl. Camille-Hostein ,33270 BOULIAC ,France","chef":"Nicolas Magie","price":"Prix - De 45 € à 150 €","url":"https://restaurant.michelin.fr/2bj8gr9/le-saint-james-bouliac","isOnLaF":true,"nameOnLaF":"Le Saint-James - Nicolas Magie","id":"4977","urlOnLaF":"https://www.lafourchette.com/restaurant/undefined/4977","geo":{"latitude":44.81423,"longitude":-0.50324},"phoneNumber":"33-557970600","picture":"https://u.tfstatic.com/restaurant_photos/977/4977/169/664/le-saint-james-nicolas-magie-salle-de-restaurant-e284c.jpg"},{"name":"Têtedoie","street":"4 Rue Professeur Pierre Marion","postalcode":"69005","locality":"Lyon 05","country":"France","address":"4 Rue Professeur Pierre Marion ,69005 Lyon 05 ,France","chef":"Christian Têtedoie","price":"Prix - De 45 € à 145 €","url":"https://restaurant.michelin.fr/29tfnmd288/tetedoie-lyon-05","isOnLaF":true,"nameOnLaF":"Têtedoie - Christian Têtedoie","id":"3997","urlOnLaF":"https://www.lafourchette.com/restaurant/undefined/3997","geo":{"latitude":45.75874,"longitude":4.82337},"phoneNumber":"33-478294010","picture":"https://u.tfstatic.com/restaurant_photos/997/3997/169/664/tetedoie-christian-tetedoie-tetedoie-dc2e4.jpg"},{"name":"G.a. au Manoir de Rétival","street":"2 rue St. Clair","postalcode":"76490","locality":"Caudebec-en-Caux","country":"France","address":"2 rue St. Clair ,76490 Caudebec-en-Caux ,France","chef":"David Goerne","price":"Prix - De 98 € à 149 €","url":"https://restaurant.michelin.fr/9rnckmj/ga-au-manoir-de-retival-caudebec-en-caux","isOnLaF":false},{"name":"Auberge de la Diligence","street":"4 r. de la Libération","postalcode":"49440","locality":"Loiré","country":"France","address":"4 r. de la Libération ,49440 Loiré ,France","chef":"Michel Cudraz","price":"Prix - De 30 € à 76 €","url":"https://restaurant.michelin.fr/29ryt77/auberge-de-la-diligence-loire","isOnLaF":true,"nameOnLaF":"L'Auberge de la Diligence","id":"6765","urlOnLaF":"https://www.lafourchette.com/restaurant/undefined/6765","geo":{"latitude":47.617650711603,"longitude":-0.97545999288559},"phoneNumber":"33-241941004","picture":"https://u.tfstatic.com/restaurant_photos/765/6765/169/664/l-auberge-de-la-diligence-la-salle-cheminee-b1295.jpg"},{"name":"Mavrommatis","street":"42 rue Daubenton","postalcode":"75005","locality":"Paris 05","country":"France","address":"42 rue Daubenton ,75005 Paris 05 ,France","chef":"Andréas MAVROMMATIS","price":"Prix - De 42 € à 75 €","url":"https://restaurant.michelin.fr/2a95vol/mavrommatis-paris-05","isOnLaF":true,"nameOnLaF":"Mavrommatis","id":"5727","urlOnLaF":"https://www.lafourchette.com/restaurant/undefined/5727","geo":{"latitude":48.84036208359,"longitude":2.3511400222778},"phoneNumber":"33-145359650","picture":"https://u.tfstatic.com/restaurant_photos/727/5727/169/664/mavrommatis-vue-de-la-salle-a0149.jpg"},{"name":"Les Terrasses de Lyon","street":"25, montée Saint BArthelémy","postalcode":"69005","locality":"Lyon 05","country":"France","address":"25, montée Saint BArthelémy ,69005 Lyon 05 ,France","chef":"David Delsart","price":"Prix - De 39 € à 115 €","url":"https://restaurant.michelin.fr/29t2ib7/les-terrasses-de-lyon-lyon-05","isOnLaF":true,"nameOnLaF":"Les Terrasses de Lyon","id":"4697","urlOnLaF":"https://www.lafourchette.com/restaurant/undefined/4697","geo":{"latitude":45.7632,"longitude":4.82581},"phoneNumber":"33-472565602","picture":"https://u.tfstatic.com/restaurant_photos/697/4697/169/664/les-terrasses-de-lyon-davy-tissot-la-verriere-avec-vue-sur-lyon-5e876.jpg"},{"name":"Dyades au Domaine des Étangs","street":"Les Etangs","postalcode":"16310","locality":"MASSIGNAC","country":"France","address":"Les Etangs ,16310 MASSIGNAC ,France","chef":"","price":"Prix - De 30 € à 98 €","url":"https://restaurant.michelin.fr/2f0stuh/dyades-au-domaine-des-etangs-massignac","isOnLaF":false},{"name":"Le Bois sans Feuilles","street":"728 Route de Villerest","postalcode":"42155","locality":"Ouches","country":"France","address":"728 Route de Villerest ,42155 Ouches ,France","chef":"Michel et César Troisgros","price":"Prix - De 140 € à 250 €","url":"https://restaurant.michelin.fr/2cm53gy/le-bois-sans-feuilles-ouches","isOnLaF":false},{"name":"Le Magasin aux Vivres","street":"5 Avenue Ney","postalcode":"57000","locality":"Metz","country":"France","address":"5 Avenue Ney ,57000 Metz ,France","chef":"Christophe Dufossé","price":"Prix - De 38 € à 125 €","url":"https://restaurant.michelin.fr/2dse7wh/le-magasin-aux-vivres-metz","isOnLaF":true,"nameOnLaF":"Le Magasin aux Vivres","id":"5109","urlOnLaF":"https://www.lafourchette.com/restaurant/undefined/5109","geo":{"latitude":49.113800598,"longitude":6.1702699661255},"phoneNumber":"33-387171717","picture":"https://u.tfstatic.com/restaurant_photos/109/5109/169/664/le-magasin-aux-vivres-salle-principale-671bc.jpg"},{"name":"Auberge Tiegezh","street":"7 Place de la Gare","postalcode":"56380","locality":"Guer","country":"France","address":"7 Place de la Gare ,56380 Guer ,France","chef":"Baptiste Denieul","price":"Prix - De 25 € à 55 €","url":"https://restaurant.michelin.fr/34milgg2/auberge-tiegezh-guer","isOnLaF":true,"nameOnLaF":"L'Auberge Tiegezh","id":"51875","urlOnLaF":"https://www.lafourchette.com/restaurant/undefined/51875","geo":{"latitude":47.90545,"longitude":-2.12423},"phoneNumber":"33-297220026","picture":"https://u.tfstatic.com/restaurant_photos/875/51875/169/664/l-auberge-tiegezh-suggestion-de-plat-8d1ce.jpg"},{"name":"Cyril Attrazic","street":"10 rte du Languedoc","postalcode":"48130","locality":"Aumont-Aubrac","country":"France","address":"10 rte du Languedoc ,48130 Aumont-Aubrac ,France","chef":"ATTRAZIC Cyril","price":"Prix - De 38 € à 95 €","url":"https://restaurant.michelin.fr/28rd58x/cyril-attrazic-aumont-aubrac","isOnLaF":true,"nameOnLaF":"Restaurant Cyril Attrazic - Chez Camillou","id":"26469","urlOnLaF":"https://www.lafourchette.com/restaurant/undefined/26469","geo":{"latitude":44.716326953761,"longitude":3.2873198986053},"phoneNumber":"33-466428614","picture":"https://u.tfstatic.com/restaurant_photos/469/26469/169/664/f3ed968b7583344a81acbec54866eec7.jpg"},{"name":"Domaine d'Auriac","street":"Route de Saint-Hilaire","postalcode":"11000","locality":"Carcassonne","country":"France","address":"Route de Saint-Hilaire ,11000 Carcassonne ,France","chef":"Philippe Deschamps","price":"Prix - De 49 € à 69 €","url":"https://restaurant.michelin.fr/2bmf006/domaine-dauriac-carcassonne","isOnLaF":true,"nameOnLaF":"Domaine d'Auriac","id":"3018","urlOnLaF":"https://www.lafourchette.com/restaurant/undefined/3018","geo":{"latitude":43.202136590848,"longitude":2.3597700595856},"phoneNumber":"33-468257222","picture":"https://u.tfstatic.com/restaurant_photos/018/3018/169/664/la-salle-a-manger-la-table-isolee-les-decorations-de-restaurant-Domaine-d-Auriac.jpg"},{"name":"Château de Courban","street":"7 rue du Lavoir","postalcode":"21520","locality":"Courban","country":"France","address":"7 rue du Lavoir ,21520 Courban ,France","chef":"Takashi Kinoshita","price":"Prix - De 47 € à 90 €","url":"https://restaurant.michelin.fr/2emcabb/chateau-de-courban-courban","isOnLaF":true,"nameOnLaF":"Château de Courban & Spa","id":"16982","urlOnLaF":"https://www.lafourchette.com/restaurant/undefined/16982","geo":{"latitude":47.919098053987,"longitude":4.7375597953796},"phoneNumber":"33-380937869","picture":"https://u.tfstatic.com/restaurant_photos/982/16982/169/664/chateau-de-courban-spa-terrasse-e3c0f.jpg"},{"name":"Le Restaurant","street":"13 rue des Beaux-Arts","postalcode":"75006","locality":"Paris 06","country":"France","address":"13 rue des Beaux-Arts ,75006 Paris 06 ,France","chef":"Julien Montbabut","price":"Prix - De 35 € à 124 €","url":"https://restaurant.michelin.fr/2cfem9h/le-restaurant-paris-06","isOnLaF":true,"nameOnLaF":"Le Restaurant de L'Hotel - Julien Montbabut","id":"878","urlOnLaF":"https://www.lafourchette.com/restaurant/undefined/878","geo":{"latitude":48.85642,"longitude":2.3351},"phoneNumber":"33-144419901","picture":"https://u.tfstatic.com/restaurant_photos/878/878/169/664/le-restaurant-de-l-hotel-julien-montbabut-elegante-decoration-du-restaurant-l-hotel-4c28e.jpg"},{"name":"Michel Chabran - La Grande Table","street":"29 Avenue du Quarante-Cinquième Parallèle","postalcode":"26600","locality":"Pont-de-l'Isère","country":"France","address":"29 Avenue du Quarante-Cinquième Parallèle ,26600 Pont-de-l'Isère ,France","chef":"Michel Chabran","price":"Prix - De 69 € à 240 €","url":"https://restaurant.michelin.fr/2d0la2d/michel-chabran-la-grande-table-pont-de-lisere","isOnLaF":false},{"name":"Le Saint-Estève","street":"2250 route cézanne D17","postalcode":"13100","locality":"Le Tholonet","country":"France","address":"2250 route cézanne D17 ,13100 Le Tholonet ,France","chef":"Mathias Dandine","price":"Prix - De 59 € à 149 €","url":"https://restaurant.michelin.fr/2x1lce26/le-saint-esteve-le-tholonet","isOnLaF":false},{"name":"Neige d'Été","street":"12 Rue de l'Amiral Roussin","postalcode":"75015","locality":"Paris 15","country":"France","address":"12 Rue de l'Amiral Roussin ,75015 Paris 15 ,France","chef":"Hideki Nishi","price":"Prix - De 45 € à 100 €","url":"https://restaurant.michelin.fr/9fkib5i9/neige-dete-paris-15","isOnLaF":true,"nameOnLaF":"Neige d'été","id":"46721","urlOnLaF":"https://www.lafourchette.com/restaurant/undefined/46721","geo":{"latitude":48.84539,"longitude":2.29906},"phoneNumber":"33-142736666","picture":"https://u.tfstatic.com/restaurant_photos/721/46721/169/664/neige-d-ete-salon-1a4af.jpg"},{"name":"La Licorne Royale","street":"27 Place Isaac Benserade","postalcode":"27480","locality":"Lyons-la-Forêt","country":"France","address":"27 Place Isaac Benserade ,27480 Lyons-la-Forêt ,France","chef":"Christophe POIRIER","price":"Prix - De 49 € à 95 €","url":"https://restaurant.michelin.fr/2ehwc2a/la-licorne-royale-lyons-la-foret","isOnLaF":true,"nameOnLaF":"La Licorne Royale","id":"5632","urlOnLaF":"https://www.lafourchette.com/restaurant/undefined/5632","geo":{"latitude":49.398628901321,"longitude":1.4766099452972},"phoneNumber":"33-232482424","picture":"https://u.tfstatic.com/restaurant_photos/632/5632/169/664/la-licorne-royale-8d26e.jpg"},{"name":"Patrick Jeffroy","street":"20 rue du Kelenn","postalcode":"29660","locality":"Carantec","country":"France","address":"20 rue du Kelenn ,29660 Carantec ,France","chef":"Patrick Jeffroy","price":"Prix - De 48 € à 149 €","url":"https://restaurant.michelin.fr/2bm9rwc/patrick-jeffroy-carantec","isOnLaF":false},{"name":"Le Castellaras","street":"461 chemin Peymeyan","postalcode":"83440","locality":"Fayence","country":"France","address":"461 chemin Peymeyan ,83440 Fayence ,France","chef":"Quentin Joplet","price":"Prix - De 45 € à 89 €","url":"https://restaurant.michelin.fr/29h5xkp/le-castellaras-fayence","isOnLaF":true,"nameOnLaF":"Le Castellaras","id":"204609","urlOnLaF":"https://www.lafourchette.com/restaurant/undefined/204609","geo":{"latitude":43.6292668,"longitude":6.673443},"phoneNumber":"33-494761380","picture":"https://u.tfstatic.com/restaurant_photos/609/204609/169/664/le-castellaras-salle-principale-6d92d.jpg"},{"name":"Julien Binz","street":"7 Rue des Cigognes","postalcode":"68770","locality":"Ammerschwihr","country":"France","address":"7 Rue des Cigognes ,68770 Ammerschwihr ,France","chef":"Le Chef Julien Binz","price":"Prix moyen - 35 €","url":"https://restaurant.michelin.fr/yi79hbnh/julien-binz-ammerschwihr","isOnLaF":true,"nameOnLaF":"Julien Binz","id":"206163","urlOnLaF":"https://www.lafourchette.com/restaurant/undefined/206163","geo":{"latitude":48.1257982,"longitude":7.2829263},"phoneNumber":"33-389229823","picture":"https://u.tfstatic.com/restaurant_photos/163/206163/169/664/julien-binz-salle-ab1fa.jpg"},{"name":"Régis et Jacques Marcon","street":"Larsiallas","postalcode":"43290","locality":"SAINT-BONNET-LE-FROID","country":"France","address":"Larsiallas ,43290 SAINT-BONNET-LE-FROID ,France","chef":"Régis et  Jacques Marcon","price":"Prix - De 130 € à 180 €","url":"https://restaurant.michelin.fr/2dntkxh/regis-et-jacques-marcon-saint-bonnet-le-froid","isOnLaF":false},{"name":"Le Clarence","street":"31 Avenue Franklin Delano Roosevelt","postalcode":"75008","locality":"Paris 08","country":"France","address":"31 Avenue Franklin Delano Roosevelt ,75008 Paris 08 ,France","chef":"Christophe Pelé","price":"Prix - De 90 € à 320 €","url":"https://restaurant.michelin.fr/sntd30zx/le-clarence-paris-08","isOnLaF":true,"nameOnLaF":"Le Clarence","id":"74933","urlOnLaF":"https://www.lafourchette.com/restaurant/undefined/74933","geo":{"latitude":48.8674054,"longitude":2.3096764},"phoneNumber":"33-182821010","picture":"https://u.tfstatic.com/restaurant_photos/933/74933/169/664/le-clarence-salle-2991d.jpg"},{"name":"MaSa","street":"112 avenue Victor-Hugo","postalcode":"92100","locality":"Boulogne-Billancourt","country":"France","address":"112 avenue Victor-Hugo ,92100 Boulogne-Billancourt ,France","chef":"Hervé Rodriguez","price":"Prix - De 42 € à 80 €","url":"https://restaurant.michelin.fr/2enx3bmn/masa-boulogne-billancourt","isOnLaF":true,"nameOnLaF":"MaSa - Hervé Rodriguez","id":"18611","urlOnLaF":"https://www.lafourchette.com/restaurant/undefined/18611","geo":{"latitude":48.83497,"longitude":2.24439},"phoneNumber":"33-148254920","picture":"https://u.tfstatic.com/restaurant_photos/611/18611/169/664/masa-19b11.jpg"},{"name":"La Marelle","street":"1593 av. de Lyon","postalcode":"01960","locality":"PERONNAS","country":"France","address":"1593 av. de Lyon ,01960 PERONNAS ,France","chef":"Didier Goiffon","price":"Prix - De 45 € à 96 €","url":"https://restaurant.michelin.fr/28zbkc6/la-marelle-peronnas","isOnLaF":false},{"name":"L'Ambroisie","street":"9 Place des Vosges","postalcode":"75004","locality":"Paris","country":"France","address":"9 Place des Vosges ,75004 Paris ,France","chef":"Bernard Pacaud","price":"Prix - De 210 € à 390 €","url":"https://restaurant.michelin.fr/2a8d13e/lambroisie-paris-04","isOnLaF":false},{"name":"Le Prince Noir - Vivien Durand","street":"1 rue du Prince Noir","postalcode":"33310","locality":"Lormont","country":"France","address":"1 rue du Prince Noir ,33310 Lormont ,France","chef":"Durand Vivien","price":"Prix - De 35 € à 97 €","url":"https://restaurant.michelin.fr/4g00u3j8/le-prince-noir-vivien-durand-lormont","isOnLaF":false},{"name":"Stéphane Derbord","street":"10 Place du Président Wilson","postalcode":"21000","locality":"Dijon","country":"France","address":"10 Place du Président Wilson ,21000 Dijon ,France","chef":"Stéphane Derbord","price":"Prix - De 28 € à 90 €","url":"https://restaurant.michelin.fr/29dkmez/stephane-derbord-dijon","isOnLaF":false},{"name":"La Table de l'Espadon","street":"15 Place Vendôme","postalcode":"75001","locality":"Paris","country":"France","address":"15 Place Vendôme ,75001 Paris ,France","chef":"Le Chef Nicolas Sale","price":"Prix - De 186 € à 396 €","url":"https://restaurant.michelin.fr/yhoi9vry/la-table-de-lespadon-paris-01","isOnLaF":false},{"name":"La Chassagnette","street":"route du Sambuc","postalcode":"13200","locality":"ARLES","country":"France","address":"route du Sambuc ,13200 ARLES ,France","chef":"Armand Arnal","price":"Prix - De 55 € à 115 €","url":"https://restaurant.michelin.fr/28qr6q2/la-chassagnette-arles","isOnLaF":true,"nameOnLaF":"La Chassagnette","id":"14529","urlOnLaF":"https://www.lafourchette.com/restaurant/undefined/14529","geo":{"latitude":43.56769,"longitude":4.6673},"phoneNumber":"33-490972696","picture":"https://u.tfstatic.com/restaurant_photos/529/14529/169/664/la-chassagnette-le-chef-armand-arnal-0d6a6.jpg"},{"name":"Maison Clovis","street":"19 bd Brotteaux","postalcode":"69006","locality":"Lyon","country":"France","address":"19 bd Brotteaux ,69006 Lyon ,France","chef":"Clovis Khoury","price":"Prix - De 32 € à 95 €","url":"https://restaurant.michelin.fr/2eqhwui/maison-clovis-lyon-06","isOnLaF":false},{"name":"1912","street":"bd de la Cahotte","postalcode":"14360","locality":"Trouville-sur-Mer","country":"France","address":"bd de la Cahotte ,14360 Trouville-sur-Mer ,France","chef":"Le chef Johan THYRIOT","price":"Prix - De 59 € à 108 €","url":"https://restaurant.michelin.fr/cns0apa3/1912-trouville-sur-mer","isOnLaF":true,"nameOnLaF":"1912","id":"60777","urlOnLaF":"https://www.lafourchette.com/restaurant/undefined/60777","geo":{"latitude":49.3660751,"longitude":0.077019},"phoneNumber":"33-231142597","picture":"https://u.tfstatic.com/restaurant_photos/777/60777/169/664/1912-facade-du-restaurant-3b587.jpg"},{"name":"La Passagère","street":"33 boulevard E. -Baudoin","postalcode":"06160","locality":"Juan-les-Pins","country":"France","address":"33 boulevard E. -Baudoin ,06160 Juan-les-Pins ,France","chef":"Aurélien VÉQUAUD","price":"Prix - De 26 € à 130 €","url":"https://restaurant.michelin.fr/29odhbw/la-passagere-juan-les-pins","isOnLaF":true,"nameOnLaF":"La Passagère","id":"203823","urlOnLaF":"https://www.lafourchette.com/restaurant/undefined/203823","geo":{"latitude":43.5647473,"longitude":7.1153065},"phoneNumber":"33-493610279","picture":"https://u.tfstatic.com/restaurant_photos/823/203823/169/664/la-passagere-salle-du-restaurant-bce88.jpg"},{"name":"Les Fresques","street":"13 Avenue des Mateirons","postalcode":"74500","locality":"Évian-les-Bains","country":"France","address":"13 Avenue des Mateirons ,74500 Évian-les-Bains ,France","chef":"Patrice Vander","price":"Prix - De 75 € à 120 €","url":"https://restaurant.michelin.fr/29gdnxp256n/les-fresques-evian-les-bains","isOnLaF":false},{"name":"La Table des Merville","street":"3 place Richard","postalcode":"31320","locality":"Castanet-Tolosan","country":"France","address":"3 place Richard ,31320 Castanet-Tolosan ,France","chef":"Thierry Merville","price":"Prix - De 28 € à 110 €","url":"https://restaurant.michelin.fr/2b3ktxc/la-table-des-merville-castanet-tolosan","isOnLaF":true,"nameOnLaF":"La Table des Merville - Thierry Merville","id":"2591","urlOnLaF":"https://www.lafourchette.com/restaurant/undefined/2591","geo":{"latitude":43.51492,"longitude":1.49833},"phoneNumber":"33-562712425","picture":"https://u.tfstatic.com/restaurant_photos/591/2591/169/664/la-table-des-merville-thierry-merville-vespa-et-cepes-d6bd8.jpg"},{"name":"Hélène Darroze","street":"4 rue d'Assas","postalcode":"75006","locality":"Paris 06","country":"France","address":"4 rue d'Assas ,75006 Paris 06 ,France","chef":"Hélène Darroze","price":"Prix - De 58 € à 98 €","url":"https://restaurant.michelin.fr/2a93ort/helene-darroze-paris-06","isOnLaF":true,"nameOnLaF":"Le Salon d'Hélène - Hélène Darroze","id":"36039","urlOnLaF":"https://www.lafourchette.com/restaurant/undefined/36039","geo":{"latitude":48.85016783308,"longitude":2.3278698921204},"phoneNumber":"33-142220011","picture":"https://u.tfstatic.com/restaurant_photos/039/36039/169/664/le-salon-d-helene-helene-darroze-la-table-d-hotes-c0f52.jpg"},{"name":"Numéro 3","street":"3 rue du Général de Gaulle","postalcode":"78490","locality":"Le Tremblay-sur-Mauldre","country":"France","address":"3 rue du Général de Gaulle ,78490 Le Tremblay-sur-Mauldre ,France","chef":"Laurent Trochain","price":"Prix - De 49 € à 85 €","url":"https://restaurant.michelin.fr/2dnmje9/numero-3-le-tremblay-sur-mauldre","isOnLaF":true,"nameOnLaF":"Restaurant Numéro 3","id":"26601","urlOnLaF":"https://www.lafourchette.com/restaurant/undefined/26601","geo":{"latitude":48.777666401796,"longitude":1.877210021019},"phoneNumber":"33-134878096","picture":"https://u.tfstatic.com/restaurant_photos/601/26601/169/664/0b0ba1fad99f909c7ea767198c2ec778.jpg"},{"name":"Le Taillevent","street":"15 Rue Lamennais","postalcode":"75008","locality":"Paris","country":"France","address":"15 Rue Lamennais ,75008 Paris ,France","chef":"Alain Solivérès","price":"Prix - De 88 € à 230 €","url":"https://restaurant.michelin.fr/2ab9sgk/le-taillevent-paris-08","isOnLaF":false},{"name":"Le Baudelaire","street":"8 rue Duphot","postalcode":"75001","locality":"Paris 01","country":"France","address":"8 rue Duphot ,75001 Paris 01 ,France","chef":"Guillaume Goupil","price":"Prix - De 54 € à 180 €","url":"https://restaurant.michelin.fr/2fdc0eg/le-baudelaire-paris-01","isOnLaF":true,"nameOnLaF":"Le Baudelaire - Hôtel Le Burgundy Paris","id":"9228","urlOnLaF":"https://www.lafourchette.com/restaurant/undefined/9228","geo":{"latitude":48.86826,"longitude":2.32558},"phoneNumber":"33-142603412","picture":"https://u.tfstatic.com/restaurant_photos/228/9228/169/664/le-baudelaire-hotel-le-burgundy-paris-salle-83ca0.jpg"},{"name":"Le Quinzième - Cyril Lignac","street":"14 rue Cauchy","postalcode":"75015","locality":"Paris","country":"France","address":"14 rue Cauchy ,75015 Paris ,France","chef":"Cyril Lignac","price":"Prix - De 69 € à 180 €","url":"https://restaurant.michelin.fr/2dtfbbi/le-quinzieme-cyril-lignac-paris-15","isOnLaF":false},{"name":"J.-M. Pérochon","street":"63 avenue de la Grand'Roche","postalcode":"85470","locality":"Brétignolles-sur-Mer","country":"France","address":"63 avenue de la Grand'Roche ,85470 Brétignolles-sur-Mer ,France","chef":"Jean-Marc Pérochon","price":"Prix - De 35 € à 72 €","url":"https://restaurant.michelin.fr/2dyiess/j-m-perochon-bretignolles-sur-mer","isOnLaF":false},{"name":"Le Meurice Alain Ducasse","street":"228 Rue de Rivoli","postalcode":"75001","locality":"Paris","country":"France","address":"228 Rue de Rivoli ,75001 Paris ,France","chef":"Alain Ducasse et Jocelyn Herland","price":"Prix - De 85 € à 380 €","url":"https://restaurant.michelin.fr/2a7d9c1/le-meurice-alain-ducasse-paris-01","isOnLaF":true,"nameOnLaF":"Restaurant le Meurice Alain Ducasse","id":"275","urlOnLaF":"https://www.lafourchette.com/restaurant/undefined/275","geo":{"latitude":48.86517,"longitude":2.32778},"phoneNumber":"33-144581055","picture":"https://u.tfstatic.com/restaurant_photos/275/275/169/664/restaurant-le-meurice-alain-ducasse-salle-du-restaurant-654b1.jpg"},{"name":"Chapelle Saint-Martin","street":"33, Saint Martin du Fault","postalcode":"87510","locality":"Nieul","country":"France","address":"33, Saint Martin du Fault ,87510 Nieul ,France","chef":"Gilles Dudognon","price":"Prix - De 55 € à 89 €","url":"https://restaurant.michelin.fr/2c4rgah/chapelle-saint-martin-nieul","isOnLaF":true,"nameOnLaF":"La Chapelle Saint Martin","id":"5609","urlOnLaF":"https://www.lafourchette.com/restaurant/undefined/5609","geo":{"latitude":45.89378103324,"longitude":1.176609992981},"phoneNumber":"33-555758017","picture":"https://u.tfstatic.com/restaurant_photos/609/5609/169/664/Parc.jpg"},{"name":"Lucas Carton","street":"9 pl. de la Madeleine","postalcode":"75008","locality":"Paris 08","country":"France","address":"9 pl. de la Madeleine ,75008 Paris 08 ,France","chef":"Julien Dumas","price":"Prix - De 89 € à 151 €","url":"https://restaurant.michelin.fr/2abav0l/lucas-carton-paris-08","isOnLaF":true,"nameOnLaF":"Lucas Carton - Julien DUMAS","id":"785","urlOnLaF":"https://www.lafourchette.com/restaurant/undefined/785","geo":{"latitude":48.86971,"longitude":2.32335},"phoneNumber":"33-142652290","picture":"https://u.tfstatic.com/restaurant_photos/785/785/169/664/lucas-carton-julien-dumas-vue-de-la-salle-711f2.jpg"},{"name":"Château de Sully","street":"D6","postalcode":"14400","locality":"Sully","country":"France","address":"D6 ,14400 Sully ,France","chef":"NIcolas FAGES","price":"Prix - De 65 € à 95 €","url":"https://restaurant.michelin.fr/2bgynqb/chateau-de-sully-sully","isOnLaF":false},{"name":"La Gouesnière","street":"1 Le Limonay","postalcode":"35350","locality":"Saint-Méloir-des-Ondes","country":"France","address":"1 Le Limonay ,35350 Saint-Méloir-des-Ondes ,France","chef":"Valade Olivier","price":"Prix - De 30 € à 104 €","url":"https://restaurant.michelin.fr/2byuiv7/la-gouesniere-saint-meloir-des-ondes","isOnLaF":false},{"name":"Loiseau rive Gauche","street":"5 rue de Bourgogne","postalcode":"75007","locality":"Paris 07","country":"France","address":"5 rue de Bourgogne ,75007 Paris 07 ,France","chef":"Maxime Laurenson","price":"Prix - De 29 € à 95 €","url":"https://restaurant.michelin.fr/2aaahmg/loiseau-rive-gauche-paris-07","isOnLaF":true,"nameOnLaF":"Loiseau rive Gauche","id":"25","urlOnLaF":"https://www.lafourchette.com/restaurant/undefined/25","geo":{"latitude":48.860104676254,"longitude":2.3182001113892},"phoneNumber":"33-145517942","picture":"https://u.tfstatic.com/restaurant_photos/025/25/169/664/loiseau-rive-gauche-vue-de-la-salle-041ca.jpg"},{"name":"La Scène","street":"33 Avenue George V","postalcode":"75008","locality":"Paris","country":"France","address":"33 Avenue George V ,75008 Paris ,France","chef":"Stéphanie Le Quellec","price":"Prix - De 50 € à 195 €","url":"https://restaurant.michelin.fr/1ore4aj2/la-scene-paris-08","isOnLaF":true,"nameOnLaF":"La Scène - Prince de Galles","id":"5497","urlOnLaF":"https://www.lafourchette.com/restaurant/undefined/5497","geo":{"latitude":48.869050916304,"longitude":2.3008699417114},"phoneNumber":"33-153237850","picture":"https://u.tfstatic.com/restaurant_photos/497/5497/169/664/la-scene-hotel-prince-de-galles-c736c.jpg"},{"name":"L'Essentiel","street":"29 Rue Mirabeau","postalcode":"14800","locality":"DEAUVILLE","country":"France","address":"29 Rue Mirabeau ,14800 DEAUVILLE ,France","chef":"Mi-Ra et Charles Thuillant","price":"Prix - De 18 € à 65 €","url":"https://restaurant.michelin.fr/40jnqvq/lessentiel-deauville","isOnLaF":true,"nameOnLaF":"L'Essentiel","id":"21632","urlOnLaF":"https://www.lafourchette.com/restaurant/undefined/21632","geo":{"latitude":49.3601911,"longitude":0.0797122},"phoneNumber":"33-231872211","picture":"https://u.tfstatic.com/restaurant_photos/632/21632/169/664/l-essentiel-soba-38328.jpg"},{"name":"Sur Mesure par Thierry Marx","street":"251 Rue Saint Honoré","postalcode":"75001","locality":"Paris","country":"France","address":"251 Rue Saint Honoré ,75001 Paris ,France","chef":"Thierry Marx","price":"Prix - De 85 € à 210 €","url":"https://restaurant.michelin.fr/6f226za/sur-mesure-par-thierry-marx-paris-01","isOnLaF":true,"nameOnLaF":"Sur Mesure  par Thierry Marx - Mandarin Oriental, Paris","id":"53046","urlOnLaF":"https://www.lafourchette.com/restaurant/undefined/53046","geo":{"latitude":48.86671,"longitude":2.32704},"phoneNumber":"33-170987300","picture":"https://u.tfstatic.com/restaurant_photos/046/53046/169/664/le-sur-mesure-vue-plat-e3ad3.jpg"},{"name":"Le Petit Nice","street":"Anse de Maldormé - Corniche J. F. Kennedy","postalcode":"13007","locality":"Marseille 07","country":"France","address":"Anse de Maldormé - Corniche J. F. Kennedy ,13007 Marseille 07 ,France","chef":"Gérald Passédat","price":"Prix - De 100 € à 370 €","url":"https://restaurant.michelin.fr/2c76rmd/le-petit-nice-marseille-07","isOnLaF":true,"nameOnLaF":"Le Petit Nice Passedat - Gérald Passedat","id":"9350","urlOnLaF":"https://www.lafourchette.com/restaurant/undefined/9350","geo":{"latitude":43.28009,"longitude":5.35182},"phoneNumber":"33-491592592","picture":"https://u.tfstatic.com/restaurant_photos/350/9350/169/664/le-petit-nice-passedat-gerald-passedat-vue-de-la-salle-0adac.jpg"},{"name":"Manoir de la Boulaie","street":"33 rue Chapelle St-Martin","postalcode":"44115","locality":"HAUTE-GOULAINE","country":"France","address":"33 rue Chapelle St-Martin ,44115 HAUTE-GOULAINE ,France","chef":"Laurent Saudeau","price":"Prix - De 59 € à 148 €","url":"https://restaurant.michelin.fr/2a3ey4n/manoir-de-la-boulaie-haute-goulaine","isOnLaF":true,"nameOnLaF":"Manoir de la Boulaie - Laurent Saudeau","id":"3485","urlOnLaF":"https://www.lafourchette.com/restaurant/undefined/3485","geo":{"latitude":47.19058,"longitude":-1.42972},"phoneNumber":"33-240061591","picture":"https://u.tfstatic.com/restaurant_photos/485/3485/169/664/manoir-de-la-boulaie-laurent-saudeau-manoir-de-la-boulaie-fb186.jpg"},{"name":"Ivan Vautier","street":"3 avenue Henry-Chéron","postalcode":"14000","locality":"Caen","country":"France","address":"3 avenue Henry-Chéron ,14000 Caen ,France","chef":"Ivan Vautier","price":"Prix - De 35.5 € à 105 €","url":"https://restaurant.michelin.fr/290z3mh/ivan-vautier-caen","isOnLaF":true,"nameOnLaF":"Ivan Vautier","id":"26460","urlOnLaF":"https://www.lafourchette.com/restaurant/undefined/26460","geo":{"latitude":49.174179854553,"longitude":-0.39010000228882},"phoneNumber":"33-231733271","picture":"https://u.tfstatic.com/restaurant_photos/460/26460/169/664/3ec5bf2956b048450dc9e59ede5bfa0a.jpg"},{"name":"La Table de Patrick Raingeard","street":"1312 av. Raymond-Poincaré","postalcode":"06360","locality":"EZE-BORD-DE-MER","country":"France","address":"1312 av. Raymond-Poincaré ,06360 EZE-BORD-DE-MER ,France","chef":"Patrick RAINGEARD","price":"Prix - De 49 € à 150 €","url":"https://restaurant.michelin.fr/2e2m5rq/la-table-de-patrick-raingeard-eze-bord-de-mer","isOnLaF":false},{"name":"Girardin","street":"19 Rue des Têtes","postalcode":"68000","locality":"Colmar","country":"France","address":"19 Rue des Têtes ,68000 Colmar ,France","chef":"Éric Girardin","price":"Prix - De 78 € à 134 €","url":"https://restaurant.michelin.fr/xha7r0xl/girardin-colmar","isOnLaF":false},{"name":"Le M","street":"22 r. du Cdt-Drogou","postalcode":"29200","locality":"Brest","country":"France","address":"22 r. du Cdt-Drogou ,29200 Brest ,France","chef":"Philippe Le Bigot","price":"Prix - De 44 € à 90 €","url":"https://restaurant.michelin.fr/2epv4gf/le-m-brest","isOnLaF":false},{"name":"Le Quincangrogne","street":"7 Rue de l'Abreuvoir","postalcode":"77400","locality":"Dampmart","country":"France","address":"7 Rue de l'Abreuvoir ,77400 Dampmart ,France","chef":"Franck Charpentier","price":"Prix - De 39 € à 59 €","url":"https://restaurant.michelin.fr/u1pjp7ux/le-quincangrogne-dampmart","isOnLaF":true,"nameOnLaF":"Le Quincangrogne","id":"78533","urlOnLaF":"https://www.lafourchette.com/restaurant/undefined/78533","geo":{"latitude":48.8838393,"longitude":2.735865},"phoneNumber":"33-164444480","picture":"https://u.tfstatic.com/restaurant_photos/533/78533/169/664/le-quincangrogne-suggestion-du-chef-0804c.jpg"},{"name":"Le Moulin de la Gorce","street":"D17","postalcode":"87800","locality":"La Roche-l'Abeille","country":"France","address":"D17 ,87800 La Roche-l'Abeille ,France","chef":"Pierre Bertranet","price":"Prix - De 49 € à 85 €","url":"https://restaurant.michelin.fr/2awwemv/le-moulin-de-la-gorce-la-roche-labeille","isOnLaF":false},{"name":"L'Auberge Basque","street":"quartier Helbarron","postalcode":"64310","locality":"Saint-Pée-sur-Nivelle","country":"France","address":"quartier Helbarron ,64310 Saint-Pée-sur-Nivelle ,France","chef":"Cédric Béchade","price":"Prix - De 29 € à 71 €","url":"https://restaurant.michelin.fr/2efx4u4/lauberge-basque-saint-pee-sur-nivelle","isOnLaF":false},{"name":"Hostellerie de l'Abbaye de la Celle","street":"10 Place Général de Gaulle","postalcode":"83170","locality":"La Celle","country":"France","address":"10 Place Général de Gaulle ,83170 La Celle ,France","chef":"Nicolas Pierantoni","price":"Prix - De 40 € à 140 €","url":"https://restaurant.michelin.fr/2bn8o1t/hostellerie-de-labbaye-de-la-celle-la-celle","isOnLaF":true,"nameOnLaF":"Hostellerie de l'Abbaye de la Celle","id":"25901","urlOnLaF":"https://www.lafourchette.com/restaurant/undefined/25901","geo":{"latitude":43.393766711522,"longitude":6.0409998893738},"phoneNumber":"33-498051414","picture":"https://u.tfstatic.com/restaurant_photos/901/25901/169/664/hostellerie-de-l-abbaye-de-la-celle-hostellerie-4502e.jpg"},{"name":"L'Ekrin by Laurent Azoulay","street":"Route de la Montée","postalcode":"73550","locality":"MERIBEL","country":"France","address":"Route de la Montée ,73550 MERIBEL ,France","chef":"Laurent AZOULAY","price":"Prix - De 95 € à 230 €","url":"https://restaurant.michelin.fr/9isyik39/lekrin-laurent-azoulay-meribel-mottaret","isOnLaF":false},{"name":"Ô Saveurs","street":"8 place Ormeaux au village","postalcode":"31180","locality":"ROUFFIAC-TOLOSAN","country":"France","address":"8 place Ormeaux au village ,31180 ROUFFIAC-TOLOSAN ,France","chef":"David Biasibetti","price":"Prix - De 28 € à 100 €","url":"https://restaurant.michelin.fr/2b3jb0y/o-saveurs-rouffiac-tolosan","isOnLaF":false},{"name":"La Chaumière","street":"346 av. du Mar. -Juin","postalcode":"39100","locality":"Dole","country":"France","address":"346 av. du Mar. -Juin ,39100 Dole ,France","chef":"Joël Césari","price":"Prix - De 26 € à 90 €","url":"https://restaurant.michelin.fr/2buz227/la-chaumiere-dole","isOnLaF":false},{"name":"La Nouvelle Auberge","street":"9 route Nationale","postalcode":"68230","locality":"Wihr-au-Val","country":"France","address":"9 route Nationale ,68230 Wihr-au-Val ,France","chef":"Bernard Leray","price":"Prix - De 39.8 € à 85 €","url":"https://restaurant.michelin.fr/2a2adlj/la-nouvelle-auberge-wihr-au-val","isOnLaF":true,"nameOnLaF":"La Nouvelle Auberge","id":"38024","urlOnLaF":"https://www.lafourchette.com/restaurant/undefined/38024","geo":{"latitude":48.045606353692,"longitude":7.2064299583435},"phoneNumber":"33-389710770","picture":"https://u.tfstatic.com/restaurant_photos/024/38024/169/664/la-nouvelle-auberge-le-chef-44aaa.jpg"},{"name":"L'Épuisette","street":"158 Vallon-des-Auffes","postalcode":"13007","locality":"Marseille","country":"France","address":"158 Vallon-des-Auffes ,13007 Marseille ,France","chef":"Guillaume SOURRIEU","price":"Prix - De 70 € à 105 €","url":"https://restaurant.michelin.fr/29w1hx9/lepuisette-marseille-07","isOnLaF":false},{"name":"Le Pré du Moulin","street":"rte de Ste-Cécile-les-Vignes","postalcode":"84830","locality":"Sérignan-du-Comtat","country":"France","address":"rte de Ste-Cécile-les-Vignes ,84830 Sérignan-du-Comtat ,France","chef":"Caroline et Pascal Alonso","price":"Prix - De 33 € à 105 €","url":"https://restaurant.michelin.fr/2a6bp6b/le-pre-du-moulin-serignan-du-comtat","isOnLaF":false},{"name":"Paul Bocuse","street":"40 Quai de la Plage","postalcode":"69660","locality":"Collonges-au-Mont-d'Or","country":"France","address":"40 Quai de la Plage ,69660 Collonges-au-Mont-d'Or ,France","chef":"Paul BOCUSE","price":"Prix - De 170 € à 275 €","url":"https://restaurant.michelin.fr/29tbf1t/paul-bocuse-collonges-au-mont-dor","isOnLaF":true,"nameOnLaF":"Auberge du Pont de Collonges - Paul Bocuse","id":"5355","urlOnLaF":"https://www.lafourchette.com/restaurant/undefined/5355","geo":{"latitude":45.81564,"longitude":4.84767},"phoneNumber":"33-472429090","picture":"https://u.tfstatic.com/restaurant_photos/355/5355/169/664/auberge-du-pont-de-collonges-paul-bocuse-collonges-cfa88.jpg"},{"name":"Le Jasmin","street":"Lieu-dit Lalande","postalcode":"47140","locality":"Saint-Sylvestre-sur-Lot","country":"France","address":"Lieu-dit Lalande ,47140 Saint-Sylvestre-sur-Lot ,France","chef":"Michel Vico","price":"Prix moyen - 55 €","url":"https://restaurant.michelin.fr/u6v6rb42/le-jasmin-saint-sylvestre-sur-lot","isOnLaF":false},{"name":"Raphaël Vionnet","street":"43 Avenue du Général Leclerc","postalcode":"74200","locality":"Thonon-les-Bains","country":"France","address":"43 Avenue du Général Leclerc ,74200 Thonon-les-Bains ,France","chef":"Raphaël Vionnet","price":"Prix - De 58 € à 103 €","url":"https://restaurant.michelin.fr/6pyhps6h/raphael-vionnet-thonon-les-bains","isOnLaF":false},{"name":"Aux Pesked","street":"59 Rue du Légué","postalcode":"22000","locality":"Saint-Brieuc","country":"France","address":"59 Rue du Légué ,22000 Saint-Brieuc ,France","chef":"Mathieu Aumont","price":"Prix - De 50 € à 85 €","url":"https://restaurant.michelin.fr/2aru9pt/aux-pesked-saint-brieuc","isOnLaF":false},{"name":"Auberge de la Tour","street":"Place de la Fontaine","postalcode":"15220","locality":"MARCOLES","country":"France","address":"Place de la Fontaine ,15220 MARCOLES ,France","chef":"Renaud Darmanin","price":"Prix - De 22 € à 66 €","url":"https://restaurant.michelin.fr/aewyhv0/auberge-de-la-tour-marcoles","isOnLaF":true,"nameOnLaF":"Auberge de la Tour","id":"23255","urlOnLaF":"https://www.lafourchette.com/restaurant/undefined/23255","geo":{"latitude":44.779890918255,"longitude":2.3498001098633},"phoneNumber":"33-471469915","picture":"https://u.tfstatic.com/restaurant_photos/255/23255/169/664/4a50b912d36808feca3b3bd401eab621.jpg"},{"name":"Le Moulin du Roc","street":"Avenue Eugène Le Roy","postalcode":"24530","locality":"Champagnac-de-Belair","country":"France","address":"Avenue Eugène Le Roy ,24530 Champagnac-de-Belair ,France","chef":"Alain Gardillou","price":"Prix - De 49 € à 125 €","url":"https://restaurant.michelin.fr/2bk7w2q/le-moulin-du-roc-champagnac-de-belair","isOnLaF":false},{"name":"Les Fresques","street":"D18","postalcode":"24240","locality":"Monestier","country":"France","address":"D18 ,24240 Monestier ,France","chef":"Didier Casaguana","price":"Prix - De 45 € à 110 €","url":"https://restaurant.michelin.fr/2ax5yy8/les-fresques-monestier","isOnLaF":false},{"name":"Anne de Bretagne","street":"163, Boulevard de la Tara","postalcode":"44770","locality":"La Plaine-sur-Mer","country":"France","address":"163, Boulevard de la Tara ,44770 La Plaine-sur-Mer ,France","chef":"Mathieu Guibert","price":"Prix - De 39 € à 77 €","url":"https://restaurant.michelin.fr/2ciults/anne-de-bretagne-la-plaine-sur-mer","isOnLaF":true,"nameOnLaF":"Hôtel - Restaurant Anne De Bretagne","id":"35732","urlOnLaF":"https://www.lafourchette.com/restaurant/undefined/35732","geo":{"latitude":47.154955617761,"longitude":-2.2134599685669},"phoneNumber":"33-240215472","picture":"https://u.tfstatic.com/restaurant_photos/732/35732/169/664/hotel-restaurant-anne-de-bretagne-vue-de-la-salle-48e76.jpg"},{"name":"Lasserre","street":"17 Avenue F. -D. -Roosevelt","postalcode":"75008","locality":"Paris 08","country":"France","address":"17 Avenue F. -D. -Roosevelt ,75008 Paris 08 ,France","chef":"","price":"Prix - De 90 € à 241 €","url":"https://restaurant.michelin.fr/2abcqvg/lasserre-paris-08","isOnLaF":true,"nameOnLaF":"Lasserre","id":"250","urlOnLaF":"https://www.lafourchette.com/restaurant/undefined/250","geo":{"latitude":48.86635,"longitude":2.31005},"phoneNumber":"33-143595343","picture":"https://u.tfstatic.com/restaurant_photos/250/250/169/664/lasserre-vue-de-la-salle-3a59a.jpg"},{"name":"Au Trou Gascon","street":"40 rue Taine","postalcode":"75012","locality":"Paris","country":"France","address":"40 rue Taine ,75012 Paris ,France","chef":"Hugo MARTIN","price":"Prix - De 42 € à 80 €","url":"https://restaurant.michelin.fr/2acpe43/au-trou-gascon-paris-12","isOnLaF":true,"nameOnLaF":"Au Trou Gascon - Alain Dutournier","id":"69375","urlOnLaF":"https://www.lafourchette.com/restaurant/undefined/69375","geo":{"latitude":48.8391204,"longitude":2.394254},"phoneNumber":"33-143443426","picture":"https://u.tfstatic.com/restaurant_photos/375/69375/169/664/au-trou-gascon-alain-dutournier-vue-de-la-salle-81501.jpg"},{"name":"L'Almandin","street":"Boulevard de l'Almandin","postalcode":"66750","locality":"Saint-Cyprien","country":"France","address":"Boulevard de l'Almandin ,66750 Saint-Cyprien ,France","chef":"Christophe Schmitt","price":"Prix - De 30 € à 108 €","url":"https://restaurant.michelin.fr/2as8r3a/lalmandin-saint-cyprien-plage","isOnLaF":true,"nameOnLaF":"L'Almandin","id":"566","urlOnLaF":"https://www.lafourchette.com/restaurant/undefined/566","geo":{"latitude":42.60715,"longitude":3.03474},"phoneNumber":"33-468210102","picture":"https://u.tfstatic.com/restaurant_photos/566/566/169/664/l-almandin-interieur-du-restaurant-70ab8.jpg"},{"name":"Le Carré d'Alethius","street":"4 r. Paul-Bertois","postalcode":"07800","locality":"Charmes-sur-Rhône","country":"France","address":"4 r. Paul-Bertois ,07800 Charmes-sur-Rhône ,France","chef":"Olivier Samin","price":"Prix - De 22 € à 75 €","url":"https://restaurant.michelin.fr/2fa4jx5/le-carre-dalethius-charmes-sur-rhone","isOnLaF":false},{"name":"Cobéa","street":"11 r. Raymond Losserand","postalcode":"75014","locality":"Paris 14","country":"France","address":"11 r. Raymond Losserand ,75014 Paris 14 ,France","chef":"Philippe Bélissent","price":"Prix - De 50 € à 120 €","url":"https://restaurant.michelin.fr/2adr3mu/cobea-paris-14","isOnLaF":true,"nameOnLaF":"Cobéa - Philippe Bélissent","id":"15802","urlOnLaF":"https://www.lafourchette.com/restaurant/undefined/15802","geo":{"latitude":48.83635,"longitude":2.32236},"phoneNumber":"33-143202139","picture":"https://u.tfstatic.com/restaurant_photos/802/15802/169/664/cobea-philippe-belissent-poulpe-de-palamos-tarama-et-creme-d-avocat-90f4e.jpg"},{"name":"Domaine des Séquoias","street":"54 Vie-de-Boussieu","postalcode":"38300","locality":"Ruy","country":"France","address":"54 Vie-de-Boussieu ,38300 Ruy ,France","chef":"Eric Jambon","price":"Prix - De 40 € à 130 €","url":"https://restaurant.michelin.fr/28zo6i3/domaine-des-sequoias-ruy","isOnLaF":true,"nameOnLaF":"Domaine des Séquoias","id":"1009","urlOnLaF":"https://www.lafourchette.com/restaurant/undefined/1009","geo":{"latitude":45.583132237668,"longitude":5.3080101013184},"phoneNumber":"33-474937800","picture":"https://u.tfstatic.com/restaurant_photos/009/1009/169/664/domaine-des-sequoias-entree-16458.jpg"},{"name":"Alexandre","street":"2 rue Xavier Tronc","postalcode":"30128","locality":"Garons","country":"France","address":"2 rue Xavier Tronc ,30128 Garons ,France","chef":"Michel Kayser","price":"Prix - De 52 € à 118 €","url":"https://restaurant.michelin.fr/2a57m2j/alexandre-garons","isOnLaF":true,"nameOnLaF":"Alexandre - Michel Kayser","id":"6986","urlOnLaF":"https://www.lafourchette.com/restaurant/undefined/6986","geo":{"latitude":43.76828,"longitude":4.42251},"phoneNumber":"33-466700899","picture":"https://u.tfstatic.com/restaurant_photos/986/6986/169/664/alexandre-michel-kayser-19279.jpg"},{"name":"Gill","street":"9 quai de la Bourse","postalcode":"76000","locality":"Rouen","country":"France","address":"9 quai de la Bourse ,76000 Rouen ,France","chef":"Gilles Tournadre","price":"Prix - De 40 € à 145 €","url":"https://restaurant.michelin.fr/2aqe7bm/gill-rouen","isOnLaF":true,"nameOnLaF":"Restaurant Gill \"Relais & Châteaux\"","id":"3157","urlOnLaF":"https://www.lafourchette.com/restaurant/undefined/3157","geo":{"latitude":49.43812,"longitude":1.09157},"phoneNumber":"33-235711614","picture":"https://u.tfstatic.com/restaurant_photos/157/3157/169/664/Table-ronde-du-restaurant-Gill.jpg"},{"name":"Fanny Rey & Jonathan Wahid","street":"12, boulevard Mirabeau","postalcode":"13210","locality":"SAINT REMY DE PROVENCE","country":"France","address":"12, boulevard Mirabeau ,13210 SAINT REMY DE PROVENCE ,France","chef":"Fanny Rey & Jonathan Wahid","price":"Prix - De 39 € à 150 €","url":"https://restaurant.michelin.fr/389tiwsv/fanny-rey-jonathan-wahid-saint-remy-de-provence","isOnLaF":false},{"name":"Le 39V","street":"39 Avenue George V","postalcode":"75008","locality":"Paris 08","country":"France","address":"39 Avenue George V ,75008 Paris 08 ,France","chef":"Frédéric Vardon","price":"Prix - De 39.5 € à 155 €","url":"https://restaurant.michelin.fr/2fd19do/le-39v-paris-08","isOnLaF":true,"nameOnLaF":"Le 39V Paris - Frédéric Vardon","id":"26112","urlOnLaF":"https://www.lafourchette.com/restaurant/undefined/26112","geo":{"latitude":48.8698226,"longitude":2.300484},"phoneNumber":"33-156623905","picture":"https://u.tfstatic.com/restaurant_photos/112/26112/169/664/39-v-frederic-vardon-vue-panoramique-de-la-terrasse-ccc6a.jpg"},{"name":"Agapé","street":"51 Rue Jouffroy-d'Abbans","postalcode":"75017","locality":"Paris 17","country":"France","address":"51 Rue Jouffroy-d'Abbans ,75017 Paris 17 ,France","chef":"Yoshitaka Takayanagi","price":"Prix - De 52 € à 215 €","url":"https://restaurant.michelin.fr/2eo1t6h/agape-paris-17","isOnLaF":true,"nameOnLaF":"Agapé","id":"1923","urlOnLaF":"https://www.lafourchette.com/restaurant/undefined/1923","geo":{"latitude":48.8848834,"longitude":2.3069132},"phoneNumber":"33-142272018","picture":"https://u.tfstatic.com/restaurant_photos/923/1923/169/664/agape-l-interieur-97075.jpg"},{"name":"Faventia","street":"3100 route de Bagnols-en-Forêt","postalcode":"83440","locality":"Tourrettes","country":"France","address":"3100 route de Bagnols-en-Forêt ,83440 Tourrettes ,France","chef":"Philippe Jourdin","price":"Prix - De 75 € à 190 €","url":"https://restaurant.michelin.fr/2dix4nq137/faventia-tourrettes","isOnLaF":true,"nameOnLaF":"Le Faventia","id":"324473","urlOnLaF":"https://www.lafourchette.com/restaurant/undefined/324473","geo":{"latitude":43.5704742,"longitude":6.720153},"phoneNumber":"33-494399000","picture":"https://u.tfstatic.com/restaurant_photos/473/324473/169/664/le-faventia-terrasse-6d7fd.jpg"},{"name":"Mère Brazier","street":"12 rue Royale","postalcode":"69001","locality":"LYON","country":"France","address":"12 rue Royale ,69001 LYON ,France","chef":"Mathieu Viannay","price":"Prix - De 70 € à 180 €","url":"https://restaurant.michelin.fr/2et3r6g/mere-brazier-lyon","isOnLaF":true,"nameOnLaF":"La Mère Brazier - Mathieu Viannay","id":"6794","urlOnLaF":"https://www.lafourchette.com/restaurant/undefined/6794","geo":{"latitude":45.7715,"longitude":4.8373},"phoneNumber":"33-478231720","picture":"https://u.tfstatic.com/restaurant_photos/794/6794/169/664/la-mere-brazier-mathieu-viannay-e6189.jpg"},{"name":"Auguste","street":"54 r. Bourgogne","postalcode":"75007","locality":"Paris 07","country":"France","address":"54 r. Bourgogne ,75007 Paris 07 ,France","chef":"Gaël Orieux","price":"Prix - De 37 € à 100 €","url":"https://restaurant.michelin.fr/2dof8zp/auguste-paris-07","isOnLaF":true,"nameOnLaF":"Restaurant Auguste - Gaël Orieux","id":"26201","urlOnLaF":"https://www.lafourchette.com/restaurant/undefined/26201","geo":{"latitude":48.85616,"longitude":2.31712},"phoneNumber":"33-145516109","picture":"https://u.tfstatic.com/restaurant_photos/201/26201/169/664/restaurant-auguste-gael-orieux-tables-dressees-c7039.jpg"},{"name":"Carré des Feuillants","street":"14 rue de Castiglione","postalcode":"75001","locality":"Paris 01","country":"France","address":"14 rue de Castiglione ,75001 Paris 01 ,France","chef":"Alain Dutournier","price":"Prix - De 68 € à 198 €","url":"https://restaurant.michelin.fr/2a7gjv9/carre-des-feuillants-paris-01","isOnLaF":true,"nameOnLaF":"Carré des Feuillants - Alain Dutournier","id":"69372","urlOnLaF":"https://www.lafourchette.com/restaurant/undefined/69372","geo":{"latitude":48.8661763,"longitude":2.3283765},"phoneNumber":"33-142868282","picture":"https://u.tfstatic.com/restaurant_photos/372/69372/169/664/carre-des-feuillants-alain-dutournier-entree-de-la-salle-7af3e.jpg"},{"name":"La Villa Madie","street":"av. du Revestel","postalcode":"13260","locality":"Cassis","country":"France","address":"av. du Revestel ,13260 Cassis ,France","chef":"Dimitri Droisneau","price":"Prix - De 95 € à 162 €","url":"https://restaurant.michelin.fr/2eb50c1n/la-villa-madie-cassis","isOnLaF":true,"nameOnLaF":"La Villa Madie - Dimitri Droisneau","id":"2788","urlOnLaF":"https://www.lafourchette.com/restaurant/undefined/2788","geo":{"latitude":43.21059,"longitude":5.54763},"phoneNumber":"33-496180000","picture":"https://u.tfstatic.com/restaurant_photos/788/2788/169/664/la-villa-madie-dimitri-droisneau-salle-du-restaurant-39c1b.jpg"},{"name":"Maison Decoret","street":"15 rue du Parc","postalcode":"03200","locality":"Vichy","country":"France","address":"15 rue du Parc ,03200 Vichy ,France","chef":"Jacques Decoret","price":"Prix - De 42 € à 122 €","url":"https://restaurant.michelin.fr/2b7zqic/maison-decoret-vichy","isOnLaF":false},{"name":"La Bastide de Moustiers","street":"Parc naturel régional du Verdon, Chemin de Quinson","postalcode":"04360","locality":"Moustiers-Sainte-Marie","country":"France","address":"Parc naturel régional du Verdon, Chemin de Quinson ,04360 Moustiers-Sainte-Marie ,France","chef":"Frédéric Garnier","price":"Prix - De 60 € à 90 €","url":"https://restaurant.michelin.fr/2cbq46s/la-bastide-de-moustiers-moustiers-sainte-marie","isOnLaF":false},{"name":"Dominique Bouchet","street":"11 Rue Treilhard","postalcode":"75008","locality":"Paris","country":"France","address":"11 Rue Treilhard ,75008 Paris ,France","chef":"Dominique Bouchet","price":"Prix - De 58 € à 125 €","url":"https://restaurant.michelin.fr/2doe0bh/dominique-bouchet-paris-08","isOnLaF":true,"nameOnLaF":"Dominique Bouchet","id":"310829","urlOnLaF":"https://www.lafourchette.com/restaurant/undefined/310829","geo":{"latitude":48.8769128,"longitude":2.3140349},"phoneNumber":"33-145610946","picture":"https://u.tfstatic.com/restaurant_photos/829/310829/169/664/dominique-bouchet-interieur-95eed.jpg"},{"name":"La Dame de Pic","street":"20 Rue du Louvre","postalcode":"75001","locality":"Paris 01","country":"France","address":"20 Rue du Louvre ,75001 Paris 01 ,France","chef":"Anne-Sophie Pic","price":"Prix - De 59 € à 105 €","url":"https://restaurant.michelin.fr/jgnpf8y/la-dame-de-pic-paris-01","isOnLaF":true,"nameOnLaF":"La Dame de Pic - Anne-Sophie PIC - Paris","id":"205419","urlOnLaF":"https://www.lafourchette.com/restaurant/undefined/205419","geo":{"latitude":48.8615278,"longitude":2.3412899},"phoneNumber":"33-142604040","picture":"https://u.tfstatic.com/restaurant_photos/419/205419/169/664/la-dame-de-pic-anne-sophie-pic-le-chef-anne-sophie-5f925.jpg"},{"name":"Les Rosiers","street":"32 av. Beau Soleil","postalcode":"64200","locality":"Biarritz","country":"France","address":"32 av. Beau Soleil ,64200 Biarritz ,France","chef":"Andrée et Stéphane Rosier","price":"Prix - De 39 € à 83 €","url":"https://restaurant.michelin.fr/2epi2a4/les-rosiers-biarritz","isOnLaF":true,"nameOnLaF":"Les Rosiers","id":"6710","urlOnLaF":"https://www.lafourchette.com/restaurant/undefined/6710","geo":{"latitude":43.467765737799,"longitude":-1.5531899929047},"phoneNumber":"33-559231368","picture":"https://u.tfstatic.com/restaurant_photos/710/6710/169/664/les-rosiers-terrasse-a7f2f.jpg"},{"name":"Flaveur","street":"25 Rue Gubernatis","postalcode":"06000","locality":"Nice","country":"France","address":"25 Rue Gubernatis ,06000 Nice ,France","chef":"Gaël et Mickaël Tourteaux","price":"Prix - De 58 € à 75 €","url":"https://restaurant.michelin.fr/2exgwy4/flaveur-nice","isOnLaF":true,"nameOnLaF":"Flaveur","id":"38155","urlOnLaF":"https://www.lafourchette.com/restaurant/undefined/38155","geo":{"latitude":43.701300441258,"longitude":7.2717800140381},"phoneNumber":"33-493625395","picture":"https://u.tfstatic.com/restaurant_photos/155/38155/169/664/flaveur-restaurant-46cc9.jpg"},{"name":"Jérôme Brochot","street":"Place Beaubernard","postalcode":"71300","locality":"Montceau-les-Mines","country":"France","address":"Place Beaubernard ,71300 Montceau-les-Mines ,France","chef":"Jérôme Brochot","price":"Prix - De 29 € à 75 €","url":"https://restaurant.michelin.fr/29zgkr3/jerome-brochot-montceau-les-mines","isOnLaF":false},{"name":"Le Georges","street":"22 pl. des Épars","postalcode":"28000","locality":"CHARTRES","country":"France","address":"22 pl. des Épars ,28000 CHARTRES ,France","chef":"Nicolas Mendès","price":"Prix - De 50 € à 95 €","url":"https://restaurant.michelin.fr/2boyz17/le-georges-chartres","isOnLaF":true,"nameOnLaF":"Le Georges - Hôtel Spa Le Grand Monarque","id":"2875","urlOnLaF":"https://www.lafourchette.com/restaurant/undefined/2875","geo":{"latitude":48.444241389455,"longitude":1.4833699464798},"phoneNumber":"33-237181515","picture":"https://u.tfstatic.com/restaurant_photos/875/2875/169/664/le-georges-hotel-spa-le-grand-monarque-vue-d-ensemble-de-la-salle-fc6e9.jpg"},{"name":"Le Jardin des Remparts","street":"10 rue Hôtel-Dieu","postalcode":"21200","locality":"Beaune","country":"France","address":"10 rue Hôtel-Dieu ,21200 Beaune ,France","chef":"Christophe Bocquillon","price":"Prix - De 32 € à 100 €","url":"https://restaurant.michelin.fr/28u6ql7/le-jardin-des-remparts-beaune","isOnLaF":true,"nameOnLaF":"Le Jardin des Remparts","id":"4988","urlOnLaF":"https://www.lafourchette.com/restaurant/undefined/4988","geo":{"latitude":47.021097227784,"longitude":4.8371500968933},"phoneNumber":"33-380247941","picture":"https://u.tfstatic.com/restaurant_photos/988/4988/169/664/le-jardin-des-remparts-salle-7e86a.jpg"},{"name":"La Tour des Vents","street":"Le Moulin de Malfourat","postalcode":"24240","locality":"Monbazillac","country":"France","address":"Le Moulin de Malfourat ,24240 Monbazillac ,France","chef":"Damien Fagette","price":"Prix - De 29 € à 75 €","url":"https://restaurant.michelin.fr/28vws7k/la-tour-des-vents-monbazillac","isOnLaF":true,"nameOnLaF":"La Tour des Vents","id":"75533","urlOnLaF":"https://www.lafourchette.com/restaurant/undefined/75533","geo":{"latitude":44.7938274,"longitude":0.3560076},"phoneNumber":"33-553583010","picture":"https://u.tfstatic.com/restaurant_photos/533/75533/169/664/la-tour-des-vents-salle-aed17.jpg"},{"name":"Auberge du Cheval Blanc","street":"4 Route de Wissembourg","postalcode":"67510","locality":"Lembach","country":"France","address":"4 Route de Wissembourg ,67510 Lembach ,France","chef":"Pascal Bastian","price":"Prix - De 58 € à 110 €","url":"https://restaurant.michelin.fr/29qf1y7/auberge-du-cheval-blanc-lembach","isOnLaF":true,"nameOnLaF":"Auberge du Cheval Blanc","id":"2310","urlOnLaF":"https://www.lafourchette.com/restaurant/undefined/2310","geo":{"latitude":49.00332041471,"longitude":7.7909498214722},"phoneNumber":"33-388944186","picture":"https://u.tfstatic.com/restaurant_photos/310/2310/169/664/auberge-du-cheval-blanc-vue-de-la-salle-993ca.jpg"},{"name":"Les Bas-Rupts","street":"181 rte de la Bresse","postalcode":"88400","locality":"Bas-Rupts","country":"France","address":"181 rte de la Bresse ,88400 Bas-Rupts ,France","chef":"Michel Philippe","price":"Prix - De 38 € à 98 €","url":"https://restaurant.michelin.fr/29jqk2d/les-bas-rupts-bas-rupts","isOnLaF":false},{"name":"Origine","street":"26 Rampe Cauchoise","postalcode":"76000","locality":"Rouen","country":"France","address":"26 Rampe Cauchoise ,76000 Rouen ,France","chef":"Benjamin Lechevallier","price":"Prix - De 30 € à 97 €","url":"https://restaurant.michelin.fr/3xmi14j/origine-rouen","isOnLaF":true,"nameOnLaF":"Restaurant Origine","id":"351691","urlOnLaF":"https://www.lafourchette.com/restaurant/undefined/351691","geo":{"latitude":49.4463893,"longitude":1.0862474},"phoneNumber":"33-235709552","picture":"https://u.tfstatic.com/restaurant_photos/691/351691/169/664/restaurant-origine-vue-de-la-salle-067bd.jpg"},{"name":"Ithurria","street":"pl. du Fronton","postalcode":"64250","locality":"Ainhoa","country":"France","address":"pl. du Fronton ,64250 Ainhoa ,France","chef":"Xavier Isabal","price":"Prix - De 42 € à 65 €","url":"https://restaurant.michelin.fr/2bbain5/ithurria-ainhoa","isOnLaF":true,"nameOnLaF":"Ithurria","id":"378","urlOnLaF":"https://www.lafourchette.com/restaurant/undefined/378","geo":{"latitude":43.305923880105,"longitude":-1.498860001564},"phoneNumber":"33-559299211","picture":"https://u.tfstatic.com/restaurant_photos/378/378/169/664/ithurria-aprecu-de-l-interieur-a9a44.jpg"},{"name":"Le Gabriel","street":"42 Avenue Gabriel","postalcode":"75008","locality":"Paris","country":"France","address":"42 Avenue Gabriel ,75008 Paris ,France","chef":"Jérôme Banctel","price":"Prix - De 95 € à 250 €","url":"https://restaurant.michelin.fr/9sqrw32m/le-gabriel-paris-08","isOnLaF":true,"nameOnLaF":"Le Gabriel - La Réserve Paris","id":"53038","urlOnLaF":"https://www.lafourchette.com/restaurant/undefined/53038","geo":{"latitude":48.86984,"longitude":2.31333},"phoneNumber":"33-158366050","picture":"https://u.tfstatic.com/restaurant_photos/038/53038/169/664/le-gabriel-hotel-la-reserve-salle-1ef7c.jpg"},{"name":"Pic","street":"285 avenue Victor Hugo","postalcode":"26000","locality":"Valence","country":"France","address":"285 avenue Victor Hugo ,26000 Valence ,France","chef":"Anne-Sophie Pic","price":"Prix - De 110 € à 330 €","url":"https://restaurant.michelin.fr/2d0hddd/pic-valence","isOnLaF":true,"nameOnLaF":"Anne-Sophie Pic - Valence","id":"205425","urlOnLaF":"https://www.lafourchette.com/restaurant/undefined/205425","geo":{"latitude":44.9176569,"longitude":4.88553},"phoneNumber":"33-475441532","picture":"https://u.tfstatic.com/restaurant_photos/425/205425/169/664/anne-sophie-pic-valence-restaurant-pic-jardin-aperitif-11b3a.jpg"},{"name":"L'Auberge de la Pomme","street":"44 rue de l' eure","postalcode":"27340","locality":"Les Damps","country":"France","address":"44 rue de l' eure ,27340 Les Damps ,France","chef":"William Boquelet","price":"Prix - De 27 € à 85 €","url":"https://restaurant.michelin.fr/2al6a9i/lauberge-de-la-pomme-les-damps","isOnLaF":true,"nameOnLaF":"L'Auberge de la Pomme","id":"32584","urlOnLaF":"https://www.lafourchette.com/restaurant/undefined/32584","geo":{"latitude":49.303195494622,"longitude":1.1781100034714},"phoneNumber":"33-235230046","picture":"https://u.tfstatic.com/restaurant_photos/584/32584/169/664/52a377f209306ebc5d04aef5925a9fa5.jpg"},{"name":"Helen","street":"3 r.Berryer","postalcode":"75008","locality":"Paris","country":"France","address":"3 r.Berryer ,75008 Paris ,France","chef":"Sébastien Carmona Porto","price":"Prix - De 48 € à 160 €","url":"https://restaurant.michelin.fr/3o59i9b/helen-paris-08","isOnLaF":true,"nameOnLaF":"Helen","id":"23454","urlOnLaF":"https://www.lafourchette.com/restaurant/undefined/23454","geo":{"latitude":48.87517,"longitude":2.30426},"phoneNumber":"33-140760140","picture":"https://u.tfstatic.com/restaurant_photos/454/23454/169/664/helen-helen-56f33.jpg"},{"name":"L'Amaryllis","street":"chemin de Martorey","postalcode":"71100","locality":"Saint-Rémy","country":"France","address":"chemin de Martorey ,71100 Saint-Rémy ,France","chef":"Cédric Burtin","price":"Prix - De 28 € à 65 €","url":"https://restaurant.michelin.fr/294rtmv/lamaryllis-saint-remy","isOnLaF":false},{"name":"Le Chantecler","street":"37 Promenade des Anglais","postalcode":"06000","locality":"NICE","country":"France","address":"37 Promenade des Anglais ,06000 NICE ,France","chef":"Jean-Denis Rieubland","price":"Prix moyen - 110 €","url":"https://restaurant.michelin.fr/2a4echf50/le-chantecler-nice","isOnLaF":true,"nameOnLaF":"Le Chantecler - Hôtel Negresco","id":"301377","urlOnLaF":"https://www.lafourchette.com/restaurant/undefined/301377","geo":{"latitude":43.6945042,"longitude":7.258332},"phoneNumber":"33-493166400","picture":"https://u.tfstatic.com/restaurant_photos/377/301377/169/664/chantecler-salle-du-restaurant-e544d.jpg"},{"name":"Le Cerisier","street":"3 rue de la Gare","postalcode":"62840","locality":"LAVENTIE","country":"France","address":"3 rue de la Gare ,62840 LAVENTIE ,France","chef":"Eric Delerue","price":"Prix - De 28 € à 110 €","url":"https://restaurant.michelin.fr/29qd0ox/le-cerisier-laventie","isOnLaF":false},{"name":"Le Relais Bernard Loiseau","street":"2, rue d'Argentine","postalcode":"21210","locality":"Saulieu","country":"France","address":"2, rue d'Argentine ,21210 Saulieu ,France","chef":"Patrick Bertron","price":"Prix - De 75 € à 250 €","url":"https://restaurant.michelin.fr/2cur8yy/le-relais-bernard-loiseau-saulieu","isOnLaF":true,"nameOnLaF":"Le Relais Bernard Loiseau","id":"3303","urlOnLaF":"https://www.lafourchette.com/restaurant/undefined/3303","geo":{"latitude":47.280067504684,"longitude":4.2317700386047},"phoneNumber":"33-380905353","picture":"https://u.tfstatic.com/restaurant_photos/303/3303/169/664/le-relais-bernard-loiseau-entree-e7b9d.jpg"},{"name":"Guy Savoy","street":"Monnaie de Paris11 Quai de Conti","postalcode":"75006","locality":"Paris","country":"France","address":"Monnaie de Paris11 Quai de Conti ,75006 Paris ,France","chef":"Guy SAVOY","price":"Prix - De 203 € à 385 €","url":"https://restaurant.michelin.fr/2afciv4/guy-savoy-paris-06","isOnLaF":false},{"name":"Pierre Gagnaire","street":"6 Rue Balzac","postalcode":"75008","locality":"Paris 08","country":"France","address":"6 Rue Balzac ,75008 Paris 08 ,France","chef":"Pierre GAGNAIRE","price":"Prix - De 155 € à 350 €","url":"https://restaurant.michelin.fr/2abhfav/pierre-gagnaire-paris-08","isOnLaF":false},{"name":"L'Abeille","street":"10 Avenue d'Iéna","postalcode":"75016","locality":"Paris 16","country":"France","address":"10 Avenue d'Iéna ,75016 Paris 16 ,France","chef":"Christophe Moret","price":"Prix - De 150 € à 250 €","url":"https://restaurant.michelin.fr/2fcezsf/labeille-paris-16","isOnLaF":true,"nameOnLaF":"L'Abeille - Shangri-La Hotel, Paris","id":"8976","urlOnLaF":"https://www.lafourchette.com/restaurant/undefined/8976","geo":{"latitude":48.86392,"longitude":2.29336},"phoneNumber":"33-153671990","picture":"https://u.tfstatic.com/restaurant_photos/976/8976/169/664/l-abeille-shangri-la-hotel-paris-terrasse-e3fb6.jpg"},{"name":"Le Sénéchal","street":"Sauveterre de Rouergue","postalcode":"12800","locality":"Sauveterre-de-Rouergue","country":"France","address":"Sauveterre de Rouergue ,12800 Sauveterre-de-Rouergue ,France","chef":"Michel Truchon","price":"Prix - De 40 € à 120 €","url":"https://restaurant.michelin.fr/2cv1ygx/le-senechal-sauveterre-de-rouergue","isOnLaF":false},{"name":"Initial","street":"24 Rue Saint-Manvieu","postalcode":"14000","locality":"Caen","country":"France","address":"24 Rue Saint-Manvieu ,14000 Caen ,France","chef":"Yohann Lemonnier","price":"Prix - De 19 € à 70 €","url":"https://restaurant.michelin.fr/sd2y8ik/initial-caen","isOnLaF":true,"nameOnLaF":"Initial","id":"27058","urlOnLaF":"https://www.lafourchette.com/restaurant/undefined/27058","geo":{"latitude":49.18294,"longitude":-0.37135},"phoneNumber":"33-250536986","picture":"https://u.tfstatic.com/restaurant_photos/058/27058/169/664/initial-devanture-3ac9e.jpg"},{"name":"L'Atelier de Gaztelur","street":"Chemin de Gastelhur","postalcode":"64200","locality":"Arcangues","country":"France","address":"Chemin de Gastelhur ,64200 Arcangues ,France","chef":"Alexandre Bousquet","price":"Prix - De 38 € à 115 €","url":"https://restaurant.michelin.fr/t3tqba7q/latelier-de-gaztelur-arcangues","isOnLaF":true,"nameOnLaF":"L’Atelier de Gaztelur","id":"78423","urlOnLaF":"https://www.lafourchette.com/restaurant/undefined/78423","geo":{"latitude":43.4422814,"longitude":-1.5328013},"phoneNumber":"33-559230406","picture":"https://u.tfstatic.com/restaurant_photos/423/78423/169/664/l-atelier-de-gaztelur-devanture-5b816.jpg"},{"name":"Domaine de Rochevilaine","street":"à la Pointe de Pen Lan","postalcode":"56190","locality":"Billiers","country":"France","address":"à la Pointe de Pen Lan ,56190 Billiers ,France","chef":"Maxime Nouail","price":"Prix - De 42 € à 77 €","url":"https://restaurant.michelin.fr/2bij0t1/domaine-de-rochevilaine-billiers","isOnLaF":false},{"name":"Auberge à la Bonne Idée","street":"3 rue des Meuniers","postalcode":"60350","locality":"SAINT-JEAN-AUX-BOIS","country":"France","address":"3 rue des Meuniers ,60350 SAINT-JEAN-AUX-BOIS ,France","chef":"Yves Giustinani","price":"Prix - De 37.5 € à 88 €","url":"https://restaurant.michelin.fr/2ak8isu/auberge-la-bonne-idee-saint-jean-aux-bois","isOnLaF":false},{"name":"Les Morainières","street":"route de Marétel","postalcode":"73170","locality":"Jongieux","country":"France","address":"route de Marétel ,73170 Jongieux ,France","chef":"Michaël Arnoult","price":"Prix - De 55 € à 145 €","url":"https://restaurant.michelin.fr/2dd2ann/les-morainieres-jongieux","isOnLaF":true,"nameOnLaF":"Auberge les Morainières","id":"10427","urlOnLaF":"https://www.lafourchette.com/restaurant/undefined/10427","geo":{"latitude":45.74931592957,"longitude":5.8014698028564},"phoneNumber":"33-479440939","picture":"https://u.tfstatic.com/restaurant_photos/427/10427/169/664/auberge-les-morainieres-terrasse-c7805.jpg"},{"name":"Le Carrousel","street":"14 rue du Pont de Morge","postalcode":"63350","locality":"MARINGUES","country":"France","address":"14 rue du Pont de Morge ,63350 MARINGUES ,France","chef":"Olivier Said","price":"Prix - De 28 € à 75 €","url":"https://restaurant.michelin.fr/2dwt9zi/le-carrousel-maringues","isOnLaF":true,"nameOnLaF":"Le Carrousel","id":"9759","urlOnLaF":"https://www.lafourchette.com/restaurant/undefined/9759","geo":{"latitude":45.920709415358,"longitude":3.3314099311829},"phoneNumber":"33-473687024","picture":"https://u.tfstatic.com/restaurant_photos/759/9759/169/664/le-carrousel-apercu-de-la-salle-a9b2c.jpg"},{"name":"1920","street":"373 chemin des follières","postalcode":"74120","locality":"Megève","country":"France","address":"373 chemin des follières ,74120 Megève ,France","chef":"Julien Gatillon","price":"Prix - De 70 € à 189 €","url":"https://restaurant.michelin.fr/3409276/1920-megeve","isOnLaF":true,"nameOnLaF":"Le 1920","id":"201032","urlOnLaF":"https://www.lafourchette.com/restaurant/undefined/201032","geo":{"latitude":45.846879,"longitude":6.6439769},"phoneNumber":"33-450786265","picture":"https://u.tfstatic.com/restaurant_photos/032/201032/169/664/le-1920-vue-de-la-salle-62e47.jpg"},{"name":"Jean-Luc Tartarin","street":"Square Saint-Roch","postalcode":"76600","locality":"Le Havre","country":"France","address":"Square Saint-Roch ,76600 Le Havre ,France","chef":"Jean Luc Tartarin","price":"Prix - De 40 € à 140 €","url":"https://restaurant.michelin.fr/2enmc29/jean-luc-tartarin-le-havre","isOnLaF":false},{"name":"Le Moulin de l'Abbaye","street":"1 avenue Pierre de Bourdeilles","postalcode":"24310","locality":"BRANTOME","country":"France","address":"1 avenue Pierre de Bourdeilles ,24310 BRANTOME ,France","chef":"LECOIN LOIC","price":"Prix - De 39 € à 110 €","url":"https://restaurant.michelin.fr/2bk4rlv/le-moulin-de-labbaye-brantome-en-perigord","isOnLaF":false},{"name":"Flocons de Sel","street":"1775 rte du Leutaz","postalcode":"74120","locality":"Megève","country":"France","address":"1775 rte du Leutaz ,74120 Megève ,France","chef":"Emmanuel Renaut","price":"Prix - De 90 € à 168 €","url":"https://restaurant.michelin.fr/29wzk9t/flocons-de-sel-megeve","isOnLaF":false},{"name":"Le Domaine du Colombier","street":"270 Chemin de Malombre","postalcode":"26780","locality":"Malataverne","country":"France","address":"270 Chemin de Malombre ,26780 Malataverne ,France","chef":"Cyril Fressac","price":"Prix - De 39 € à 145 €","url":"https://restaurant.michelin.fr/2ca9g6u/le-domaine-du-colombier-malataverne","isOnLaF":false},{"name":"La Bastide St-Antoine","street":"48 av. Henri-Dunant","postalcode":"06130","locality":"Grasse","country":"France","address":"48 av. Henri-Dunant ,06130 Grasse ,France","chef":"Jacques Chibois","price":"Prix - De 66 € à 220 €","url":"https://restaurant.michelin.fr/29ktfvn/la-bastide-st-antoine-grasse","isOnLaF":false},{"name":"Auberge du Bon Laboureur","street":"6 r. Dr Bretonneau","postalcode":"37150","locality":"Chenonceaux","country":"France","address":"6 r. Dr Bretonneau ,37150 Chenonceaux ,France","chef":"Antoine Jeudi","price":"Prix - De 32 € à 115 €","url":"https://restaurant.michelin.fr/2bpwyme/auberge-du-bon-laboureur-chenonceaux","isOnLaF":true,"nameOnLaF":"Auberge du Bon Laboureur","id":"2934","urlOnLaF":"https://www.lafourchette.com/restaurant/undefined/2934","geo":{"latitude":47.3325438,"longitude":1.0663038},"phoneNumber":"33-247239002","picture":"https://u.tfstatic.com/restaurant_photos/934/2934/169/664/auberge-du-bon-laboureur-le-restaurant-56f80.jpg"},{"name":"Domaine de Clairefontaine","street":"chemin des Fontanettes","postalcode":"38121","locality":"Chonas-l'Amballan","country":"France","address":"chemin des Fontanettes ,38121 Chonas-l'Amballan ,France","chef":"Philippe Girardon","price":"Prix - De 28 € à 100 €","url":"https://restaurant.michelin.fr/2b8j4np/domaine-de-clairefontaine-chonas-lamballan","isOnLaF":true,"nameOnLaF":"Domaine de Clairefontaine","id":"22878","urlOnLaF":"https://www.lafourchette.com/restaurant/undefined/22878","geo":{"latitude":45.45862690296,"longitude":4.8100299835205},"phoneNumber":"33-474588152","picture":"https://u.tfstatic.com/restaurant_photos/878/22878/169/664/4c7aa7548eb7ba51fd4ebd4a6228c6b5.jpg"},{"name":"Le St-Placide","street":"6 place du poncel","postalcode":"35400","locality":"Saint-Malo","country":"France","address":"6 place du poncel ,35400 Saint-Malo ,France","chef":"Luc Mobihan","price":"Prix - De 35 € à 105 €","url":"https://restaurant.michelin.fr/2av98t5/le-st-placide-saint-malo","isOnLaF":false},{"name":"L'Oustau de Baumanière","street":"Village des Baux-de-Provence","postalcode":"13520","locality":"Les Baux-de-Provence","country":"France","address":"Village des Baux-de-Provence ,13520 Les Baux-de-Provence ,France","chef":"Jean-André Charial","price":"Prix - De 100 € à 295 €","url":"https://restaurant.michelin.fr/28tn79w/loustau-de-baumaniere-les-baux-de-provence","isOnLaF":false},{"name":"Aigue Marine","street":"5 r. M. -Berthelot","postalcode":"22220","locality":"Tréguier","country":"France","address":"5 r. M. -Berthelot ,22220 Tréguier ,France","chef":"LAISNEY Stanislas","price":"Prix - De 21 € à 88 €","url":"https://restaurant.michelin.fr/2cz1lgu/aigue-marine-treguier","isOnLaF":false},{"name":"Frédéric Doucet","street":"2 avenue de la Libération","postalcode":"71120","locality":"Charolles","country":"France","address":"2 avenue de la Libération ,71120 Charolles ,France","chef":"Frédéric Doucet","price":"Prix - De 45 € à 95 €","url":"https://restaurant.michelin.fr/295q5w8/frederic-doucet-charolles","isOnLaF":false},{"name":"Le Chiberta","street":"3 Rue Arsène Houssaye","postalcode":"75008","locality":"Paris 08","country":"France","address":"3 Rue Arsène Houssaye ,75008 Paris 08 ,France","chef":"Stéphane Laruelle","price":"Prix - De 49 € à 120 €","url":"https://restaurant.michelin.fr/2abl39j/le-chiberta-paris-08","isOnLaF":true,"nameOnLaF":"Le Chiberta - Stéphane Laruelle - Guy Savoy","id":"2828","urlOnLaF":"https://www.lafourchette.com/restaurant/undefined/2828","geo":{"latitude":48.8735863,"longitude":2.2978007},"phoneNumber":"33-153534200","picture":"https://u.tfstatic.com/restaurant_photos/828/2828/169/664/le-chiberta-stephane-laruelle-guy-savoy-apercu-de-l-interieur-7ab38.jpg"},{"name":"Loiseau des Vignes","street":"31 Rue Jean Francois Maufoux","postalcode":"21200","locality":"Beaune","country":"France","address":"31 Rue Jean Francois Maufoux ,21200 Beaune ,France","chef":"Haddouche Mourad","price":"Prix - De 23 € à 119 €","url":"https://restaurant.michelin.fr/2ef8rpt/loiseau-des-vignes-beaune","isOnLaF":false},{"name":"L'Odas","street":"Passage Maurice Lenfant","postalcode":"76000","locality":"Rouen","country":"France","address":"Passage Maurice Lenfant ,76000 Rouen ,France","chef":"Olivier Da Silva","price":"Prix - De 29 € à 80 €","url":"https://restaurant.michelin.fr/33tyod0j/lodas-rouen","isOnLaF":true,"nameOnLaF":"L'Odas","id":"212971","urlOnLaF":"https://www.lafourchette.com/restaurant/undefined/212971","geo":{"latitude":49.4411055,"longitude":1.0941444},"phoneNumber":"33-235738324","picture":"https://u.tfstatic.com/restaurant_photos/971/212971/169/664/l-odas-la-salle-du-restaurant-15925.jpg"},{"name":"La Côte Saint-Jacques","street":"14 faubourg de Paris","postalcode":"89300","locality":"Joigny","country":"France","address":"14 faubourg de Paris ,89300 Joigny ,France","chef":"Jean-Michel Lorain","price":"Prix - De 79 € à 238 €","url":"https://restaurant.michelin.fr/2c2ma30/la-cote-saint-jacques-joigny","isOnLaF":true,"nameOnLaF":"La Côte Saint-Jacques","id":"12792","urlOnLaF":"https://www.lafourchette.com/restaurant/undefined/12792","geo":{"latitude":47.983284,"longitude":3.385417},"phoneNumber":"33-386620970","picture":"https://u.tfstatic.com/restaurant_photos/792/12792/169/664/la-cote-saint-jacques-salle-de-restaurant-la-cote-saint-jacques-d1f21.jpg"},{"name":"L'Auberge des Glazicks","street":"7 rue de la Plage","postalcode":"29550","locality":"PLOMODIERN","country":"France","address":"7 rue de la Plage ,29550 PLOMODIERN ,France","chef":"Olivier Bellin","price":"Prix - De 58 € à 225 €","url":"https://restaurant.michelin.fr/2akhln2/lauberge-des-glazicks-plomodiern","isOnLaF":false},{"name":"Le Clos des Sens","street":"13 r. J. -Mermoz","postalcode":"74940","locality":"Annecy","country":"France","address":"13 r. J. -Mermoz ,74940 Annecy ,France","chef":"Laurent Petit","price":"Prix - De 70 € à 190 €","url":"https://restaurant.michelin.fr/28pf13h/le-clos-des-sens-annecy-le-vieux","isOnLaF":true,"nameOnLaF":"Le Clos des Sens","id":"7130","urlOnLaF":"https://www.lafourchette.com/restaurant/undefined/7130","geo":{"latitude":45.917092295764,"longitude":6.1454200744629},"phoneNumber":"33-450230790","picture":"https://u.tfstatic.com/restaurant_photos/130/7130/169/664/le-clos-des-sens-terrasse-6c5d9.jpg"},{"name":"Le Brittany","street":"bd Ste-Barbe","postalcode":"29681","locality":"Roscoff","country":"France","address":"bd Ste-Barbe ,29681 Roscoff ,France","chef":"Loic Le Bail","price":"Prix - De 58 € à 68 €","url":"https://restaurant.michelin.fr/2cnbixn/le-brittany-roscoff","isOnLaF":false},{"name":"La Scène Thélème","street":"18 Rue Troyon","postalcode":"75017","locality":"PARIS","country":"France","address":"18 Rue Troyon ,75017 PARIS ,France","chef":"Julien Roucheteau","price":"Prix - De 39 € à 179 €","url":"https://restaurant.michelin.fr/ygx47dyb/la-scene-theleme-paris-17","isOnLaF":true,"nameOnLaF":"La Scène Thélème","id":"269585","urlOnLaF":"https://www.lafourchette.com/restaurant/undefined/269585","geo":{"latitude":48.876328,"longitude":2.2952667},"phoneNumber":"33-177376099","picture":"https://u.tfstatic.com/restaurant_photos/585/269585/169/664/la-scene-theleme-service-8ddbb.jpg"},{"name":"En Marge","street":"1204 route de la Croix-Falgarde","postalcode":"31320","locality":"AUREVILLE","country":"France","address":"1204 route de la Croix-Falgarde ,31320 AUREVILLE ,France","chef":"Frank Renimel","price":"Prix - De 34 € à 145 €","url":"https://restaurant.michelin.fr/q8lel2a/en-marge-aureville","isOnLaF":false},{"name":"Alléno Paris au Pavillon Ledoyen","street":"8 avenue Dutuit","postalcode":"75008","locality":"Paris","country":"France","address":"8 avenue Dutuit ,75008 Paris ,France","chef":"Yannick Alléno","price":"Prix - De 135 € à 340 €","url":"https://restaurant.michelin.fr/2ab5qlx/alleno-paris-au-pavillon-ledoyen-paris-08","isOnLaF":false},{"name":"Le Fanal","street":"17 Avenue du Fontaulé","postalcode":"66650","locality":"Banyuls-sur-Mer","country":"France","address":"17 Avenue du Fontaulé ,66650 Banyuls-sur-Mer ,France","chef":"Pascal Borrell","price":"Prix - De 19 € à 60 €","url":"https://restaurant.michelin.fr/yw26sgs/le-fanal-banyuls-sur-mer","isOnLaF":false},{"name":"Bruno","street":"2350 route des Arcs, Campagne Mariette","postalcode":"83510","locality":"Lorgues","country":"France","address":"2350 route des Arcs, Campagne Mariette ,83510 Lorgues ,France","chef":"Benjamin Bruno","price":"Prix - De 73 € à 190 €","url":"https://restaurant.michelin.fr/29s5co3/bruno-lorgues","isOnLaF":false},{"name":"Le Bénaton","street":"25 Rue du Faubourg-Bretonnière","postalcode":"21200","locality":"BEAUNE","country":"France","address":"25 Rue du Faubourg-Bretonnière ,21200 BEAUNE ,France","chef":"Keishi Sugimura","price":"Prix - De 34 € à 90 €","url":"https://restaurant.michelin.fr/28u9h7z/le-benaton-beaune","isOnLaF":false},{"name":"Pierre Orsi","street":"Place Kléber","postalcode":"69006","locality":"Lyon 06","country":"France","address":"Place Kléber ,69006 Lyon 06 ,France","chef":"Pierre Orsi","price":"Prix - De 60 € à 115 €","url":"https://restaurant.michelin.fr/29te7ik/pierre-orsi-lyon-06","isOnLaF":true,"nameOnLaF":"Pierre Orsi","id":"12900","urlOnLaF":"https://www.lafourchette.com/restaurant/undefined/12900","geo":{"latitude":45.769268566286,"longitude":4.8489599227905},"phoneNumber":"33-478895768","picture":"https://u.tfstatic.com/restaurant_photos/900/12900/169/664/pierre-orsi-vue-salle-2d50e.jpg"},{"name":"Relais de la Poste","street":"21 rue du Gén. -de-Gaulle","postalcode":"67610","locality":"LA-WANTZENAU","country":"France","address":"21 rue du Gén. -de-Gaulle ,67610 LA-WANTZENAU ,France","chef":"Stephan Bernhard","price":"Prix - De 29 € à 98 €","url":"https://restaurant.michelin.fr/2b1jv34/relais-de-la-poste-la-wantzenau","isOnLaF":true,"nameOnLaF":"Le Relais de la Poste","id":"2876","urlOnLaF":"https://www.lafourchette.com/restaurant/undefined/2876","geo":{"latitude":48.66109,"longitude":7.82327},"phoneNumber":"33-388592480","picture":"https://u.tfstatic.com/restaurant_photos/876/2876/169/664/le-relais-de-la-poste-entree-6d380.jpg"},{"name":"Auberge du Vieux Puits","street":"5 Avenue Saint-Victor","postalcode":"11360","locality":"Fontjoncouse","country":"France","address":"5 Avenue Saint-Victor ,11360 Fontjoncouse ,France","chef":"Gilles Goujon","price":"Prix - De 120 € à 195 €","url":"https://restaurant.michelin.fr/29ib1yg/auberge-du-vieux-puits-fontjoncouse","isOnLaF":false},{"name":"L'Aparté","street":"21 Rue de l’Europe","postalcode":"31850","locality":"MONTRABE","country":"France","address":"21 Rue de l’Europe ,31850 MONTRABE ,France","chef":"le Chef Jérémy Morin","price":"Prix - De 29 € à 87 €","url":"https://restaurant.michelin.fr/xay649ax/laparte-montrabe","isOnLaF":false},{"name":"JY'S","street":"17 r. de la Poissonnerie","postalcode":"68000","locality":"Colmar","country":"France","address":"17 r. de la Poissonnerie ,68000 Colmar ,France","chef":"Jean-Yves Schillinger","price":"Prix - De 45 € à 85 €","url":"https://restaurant.michelin.fr/298563e/jys-colmar","isOnLaF":true,"nameOnLaF":"JY'S","id":"5603","urlOnLaF":"https://www.lafourchette.com/restaurant/undefined/5603","geo":{"latitude":48.07421,"longitude":7.35957},"phoneNumber":"33-389215360","picture":"https://u.tfstatic.com/restaurant_photos/603/5603/169/664/jy-s-rez-de-chausee-9f795.jpg"},{"name":"Il Carpaccio","street":"37 avenue Hoche","postalcode":"75008","locality":"Paris 08","country":"France","address":"37 avenue Hoche ,75008 Paris 08 ,France","chef":"","price":"Prix - De 45 € à 145 €","url":"https://restaurant.michelin.fr/2fdi6av208/il-carpaccio-paris-08","isOnLaF":true,"nameOnLaF":"Il Carpaccio - Hôtel Royal Monceau","id":"8601","urlOnLaF":"https://www.lafourchette.com/restaurant/undefined/8601","geo":{"latitude":48.8757813,"longitude":2.3004112},"phoneNumber":"33-142998812","picture":"https://u.tfstatic.com/restaurant_photos/601/8601/169/664/il-carpaccio-hotel-royal-monceau-vue-de-la-salle-20544.jpg"},{"name":"La Table de La Butte","street":"10 rue de la Mer","postalcode":"29260","locality":"PLOUIDER","country":"France","address":"10 rue de la Mer ,29260 PLOUIDER ,France","chef":"Nicolas Conraux","price":"Prix - De 34 € à 118 €","url":"https://restaurant.michelin.fr/2cj2itx/la-table-de-la-butte-plouider","isOnLaF":false},{"name":"La Grand'Vigne","street":"chemin de Smith-Haut-Lafitte","postalcode":"33650","locality":"Martillac","country":"France","address":"chemin de Smith-Haut-Lafitte ,33650 Martillac ,France","chef":"Nicolas Masse","price":"Prix - De 75 € à 157 €","url":"https://restaurant.michelin.fr/28yhuxy/la-grandvigne-martillac","isOnLaF":true,"nameOnLaF":"La Grand'Vigne - Hôtel Les Sources de Caudalie","id":"5649","urlOnLaF":"https://www.lafourchette.com/restaurant/undefined/5649","geo":{"latitude":44.71391165176,"longitude":-0.54174000024796},"phoneNumber":"33-557838383","picture":"https://u.tfstatic.com/restaurant_photos/649/5649/169/664/la-grand-vigne-hotel-les-sources-de-caudalie-exterieur-2edd5.jpg"},{"name":"Restaurant du Palais Royal","street":"110 Galerie de Valois - Jardin du Palais Royal","postalcode":"75001","locality":"Paris 01","country":"France","address":"110 Galerie de Valois - Jardin du Palais Royal ,75001 Paris 01 ,France","chef":"Philip Chronopoulos","price":"Prix - De 48 € à 152 €","url":"https://restaurant.michelin.fr/2a7qx35/restaurant-du-palais-royal-paris-01","isOnLaF":false},{"name":"Frédéric Simonin","street":"25 rue Bayen","postalcode":"75017","locality":"Paris","country":"France","address":"25 rue Bayen ,75017 Paris ,France","chef":"FREDERIC SIMONIN","price":"Prix - De 44 € à 155 €","url":"https://restaurant.michelin.fr/2f8857v/frederic-simonin-paris-17","isOnLaF":true,"nameOnLaF":"Frédéric Simonin","id":"23087","urlOnLaF":"https://www.lafourchette.com/restaurant/undefined/23087","geo":{"latitude":48.879967428258,"longitude":2.294310092926},"phoneNumber":"33-145747474","picture":"https://u.tfstatic.com/restaurant_photos/087/23087/169/664/frederic-simonin-huitres-fines-de-claire-en-gelee-d-eau-de-mer-et-persil-echalote-vinaigre-raifort-et-beurre-d-algue-d88cf.jpg"},{"name":"Le Grand Cerf","street":"50 rte Nationale","postalcode":"51500","locality":"Montchenot","country":"France","address":"50 rte Nationale ,51500 Montchenot ,France","chef":"Dominique Giraudeau et Pascal Champion","price":"Prix - De 37 € à 84 €","url":"https://restaurant.michelin.fr/2anw751/le-grand-cerf-montchenot","isOnLaF":false},{"name":"L'Atelier d'Edmond","street":"au Fornet","postalcode":"73150","locality":"Val-d'Isère","country":"France","address":"au Fornet ,73150 Val-d'Isère ,France","chef":"Benoît Vidal","price":"Prix - De 95 € à 155 €","url":"https://restaurant.michelin.fr/2e1ykis/latelier-dedmond-val-disere","isOnLaF":false},{"name":"Sylvestre","street":"79 rue St-Dominique","postalcode":"75007","locality":"Paris","country":"France","address":"79 rue St-Dominique ,75007 Paris ,France","chef":"Sylvestre Wahid","price":"Prix - De 55 € à 250 €","url":"https://restaurant.michelin.fr/2fe7j1g/sylvestre-paris-07","isOnLaF":true,"nameOnLaF":"Sylvestre - Hôtel Thoumieux","id":"200546","urlOnLaF":"https://www.lafourchette.com/restaurant/undefined/200546","geo":{"latitude":48.8595623,"longitude":2.3086962},"phoneNumber":"33-147057979","picture":"https://u.tfstatic.com/restaurant_photos/546/200546/169/664/sylvestre-la-salle-du-restaurant-c4aa1.jpg"},{"name":"Les Pêcheurs","street":"10 boulevard du Maréchal-Juin","postalcode":"06600","locality":"Antibes","country":"France","address":"10 boulevard du Maréchal-Juin ,06600 Antibes ,France","chef":"Nicolas RONDELLI","price":"Prix moyen - 85 €","url":"https://restaurant.michelin.fr/29ol879/les-pecheurs-antibes","isOnLaF":false},{"name":"Château de Pray","street":"Rue du Cèdre","postalcode":"37400","locality":"Amboise","country":"France","address":"Rue du Cèdre ,37400 Amboise ,France","chef":"Arnaud Philippon","price":"Prix - De 59 € à 135 €","url":"https://restaurant.michelin.fr/2bcbfo0/chateau-de-pray-amboise","isOnLaF":false},{"name":"Le Millénaire","street":"4 rue Bertin","postalcode":"51100","locality":"Reims","country":"France","address":"4 rue Bertin ,51100 Reims ,France","chef":"Laurent et Thibault Laplaige","price":"Prix - De 35 € à 120 €","url":"https://restaurant.michelin.fr/2ank1c1/le-millenaire-reims","isOnLaF":false},{"name":"La Table de Franck Putelat","street":"80 chemin des Anglais","postalcode":"11000","locality":"Carcassonne","country":"France","address":"80 chemin des Anglais ,11000 Carcassonne ,France","chef":"Mr Franck PUTELAT","price":"Prix - De 40 € à 160 €","url":"https://restaurant.michelin.fr/2e06z2s/la-table-de-franck-putelat-carcassonne","isOnLaF":false},{"name":"Auberge Frankenbourg","street":"13 r. Gén. de Gaulle","postalcode":"67730","locality":"La Vancelle","country":"France","address":"13 r. Gén. de Gaulle ,67730 La Vancelle ,France","chef":"Sébastien Buecher","price":"Prix - De 40 € à 75 €","url":"https://restaurant.michelin.fr/29qv5p8/auberge-frankenbourg-la-vancelle","isOnLaF":false},{"name":"Alcyone","street":"1 Place Daviel","postalcode":"13002","locality":"MARSEILLE","country":"France","address":"1 Place Daviel ,13002 MARSEILLE ,France","chef":"Lionel Levy","price":"Prix moyen - 99 €","url":"https://restaurant.michelin.fr/3f9eksg5n/alcyone-marseille-02","isOnLaF":true,"nameOnLaF":"Alcyone","id":"31008","urlOnLaF":"https://www.lafourchette.com/restaurant/undefined/31008","geo":{"latitude":43.2977232,"longitude":5.3694249},"phoneNumber":"33-413424343","picture":"https://u.tfstatic.com/restaurant_photos/008/31008/169/664/alcyone-la-passion-a-196c-850b0.jpg"},{"name":"Les Bacchanales","street":"247 avenue de Provence","postalcode":"06140","locality":"VENCE","country":"France","address":"247 avenue de Provence ,06140 VENCE ,France","chef":"Christophe Dufau","price":"Prix - De 32 € à 95 €","url":"https://restaurant.michelin.fr/2en7eas/les-bacchanales-vence","isOnLaF":true,"nameOnLaF":"Les Bacchanales - Christophe Dufau","id":"6448","urlOnLaF":"https://www.lafourchette.com/restaurant/undefined/6448","geo":{"latitude":43.72696,"longitude":7.11292},"phoneNumber":"33-493241919","picture":"https://u.tfstatic.com/restaurant_photos/448/6448/169/664/les-bacchanales-christophe-dufau-vue-de-la-salle-2c38d.jpg"},{"name":"L'Orangerie du Château","street":"1 Avenue du Docteur Jean Laigret","postalcode":"41000","locality":"Blois","country":"France","address":"1 Avenue du Docteur Jean Laigret ,41000 Blois ,France","chef":"Jean-Marc Molveaux","price":"Prix - De 39 € à 112 €","url":"https://restaurant.michelin.fr/28xeo4n/lorangerie-du-chateau-blois","isOnLaF":false},{"name":"Paloma","street":"47 Avenue du Moulin de la Croix","postalcode":"06250","locality":"Mougins","country":"France","address":"47 Avenue du Moulin de la Croix ,06250 Mougins ,France","chef":"Nicolas DECHERCHI","price":"Prix - De 49 € à 185 €","url":"https://restaurant.michelin.fr/280mq6yn/paloma-mougins","isOnLaF":true,"nameOnLaF":"Paloma","id":"38822","urlOnLaF":"https://www.lafourchette.com/restaurant/undefined/38822","geo":{"latitude":43.6011753,"longitude":6.9967029},"phoneNumber":"33-492281073","picture":"https://u.tfstatic.com/restaurant_photos/822/38822/169/664/paloma-restaurant-05449.jpg"},{"name":"Shang Palace","street":"10 Avenue d'Iéna","postalcode":"75016","locality":"Paris 16","country":"France","address":"10 Avenue d'Iéna ,75016 Paris 16 ,France","chef":"Samuel Lee","price":"Prix - De 48 € à 280 €","url":"https://restaurant.michelin.fr/2fcezsf205/shang-palace-paris-16","isOnLaF":true,"nameOnLaF":"Shang Palace - Shangri-La Hotel, Paris","id":"8977","urlOnLaF":"https://www.lafourchette.com/restaurant/undefined/8977","geo":{"latitude":48.86392,"longitude":2.29336},"phoneNumber":"33-153671992","picture":"https://u.tfstatic.com/restaurant_photos/977/8977/169/664/shang-palace-shangri-la-hotel-paris-frank-xu-suggestion-du-chef-1436e.jpg"},{"name":"La Bonne Étape","street":"chemin du lac","postalcode":"04160","locality":"Château-Arnoux","country":"France","address":"chemin du lac ,04160 Château-Arnoux ,France","chef":"Jany Gleize","price":"Prix - De 35 € à 75 €","url":"https://restaurant.michelin.fr/2bp5jf6/la-bonne-etape-chateau-arnoux","isOnLaF":true,"nameOnLaF":"La Bonne Etape","id":"953","urlOnLaF":"https://www.lafourchette.com/restaurant/undefined/953","geo":{"latitude":44.093725071012,"longitude":6.0104398727417},"phoneNumber":"33-492640009","picture":"https://u.tfstatic.com/restaurant_photos/953/953/169/664/la-bonne-etape-vue-de-la-salle-cb403.jpg"},{"name":"Mirazur","street":"30, Avenue Aristide Briand","postalcode":"06500","locality":"Menton","country":"France","address":"30, Avenue Aristide Briand ,06500 Menton ,France","chef":"Mauro Colagreco","price":"Prix - De 110 € à 210 €","url":"https://restaurant.michelin.fr/2d440f7/mirazur-menton","isOnLaF":false},{"name":"Auberge des Templiers","street":"D2007","postalcode":"45290","locality":"Les Bézards","country":"France","address":"D2007 ,45290 Les Bézards ,France","chef":"Yoshihiko MIURA","price":"Prix - De 55 € à 90 €","url":"https://restaurant.michelin.fr/2bicgcl/auberge-des-templiers-les-bezards","isOnLaF":false},{"name":"Les Terraillers","street":"11 Route Chemin-Neuf","postalcode":"06410","locality":"Biot","country":"France","address":"11 Route Chemin-Neuf ,06410 Biot ,France","chef":"Michaël Fulci","price":"Prix - De 43 € à 125 €","url":"https://restaurant.michelin.fr/28x308q/les-terraillers-biot","isOnLaF":false},{"name":"64° Le Restaurant","street":"9-13 Rue du Général de Gaulle","postalcode":"68240","locality":"Kaysersberg","country":"France","address":"9-13 Rue du Général de Gaulle ,68240 Kaysersberg ,France","chef":"Olivier Nasti","price":"Prix - De 55 € à 178 €","url":"https://restaurant.michelin.fr/2c30770n/64deg-le-restaurant-kaysersberg-vignoble","isOnLaF":false},{"name":"Alain Llorca","street":"350 Route de Saint-Paul","postalcode":"06480","locality":"La Colle-sur-Loup","country":"France","address":"350 Route de Saint-Paul ,06480 La Colle-sur-Loup ,France","chef":"LLORCA ALAIN","price":"Prix - De 48 € à 230 €","url":"https://restaurant.michelin.fr/2e4vi29/alain-llorca-la-colle-sur-loup","isOnLaF":true,"nameOnLaF":"Alain Llorca","id":"277471","urlOnLaF":"https://www.lafourchette.com/restaurant/undefined/277471","geo":{"latitude":43.695254,"longitude":7.1091419},"phoneNumber":"33-493320293","picture":"https://u.tfstatic.com/restaurant_photos/471/277471/169/664/alain-llorca-vue-de-la-salle-395e6.jpg"},{"name":"Château d'Adoménil","street":"","postalcode":"54300","locality":"Lunéville","country":"France","address":" ,54300 Lunéville ,France","chef":"Cyril Leclerc","price":"Prix - De 68 € à 150 €","url":"https://restaurant.michelin.fr/2c5ztru/chateau-dadomenil-luneville","isOnLaF":false},{"name":"Auberge de l'Île Barbe","street":"1 Place Notre-Dame","postalcode":"69009","locality":"Lyon 09","country":"France","address":"1 Place Notre-Dame ,69009 Lyon 09 ,France","chef":"Jean-Christophe Ansanay-Alex","price":"Prix - De 50 € à 158 €","url":"https://restaurant.michelin.fr/29tj1pj/auberge-de-lile-barbe-lyon-09","isOnLaF":false},{"name":"Maison Rostang","street":"20 rue Rennequin","postalcode":"75017","locality":"Paris","country":"France","address":"20 rue Rennequin ,75017 Paris ,France","chef":"Nicolas Beaumann","price":"Prix - De 90 € à 225 €","url":"https://restaurant.michelin.fr/2afdah0/maison-rostang-paris-17","isOnLaF":true,"nameOnLaF":"Maison Rostang","id":"405","urlOnLaF":"https://www.lafourchette.com/restaurant/undefined/405","geo":{"latitude":48.8814785,"longitude":2.2986383},"phoneNumber":"33-147634077","picture":"https://u.tfstatic.com/restaurant_photos/405/405/169/664/michel-rostang-nicolas-beaumann-les-violons-d-arman-pour-vous-accueillir-e6e56.jpg"},{"name":"Le Vivarais","street":"5 avenue Expilly","postalcode":"07600","locality":"VALS-LES-BAINS","country":"France","address":"5 avenue Expilly ,07600 VALS-LES-BAINS ,France","chef":"POLLY STEPHANE","price":"Prix - De 27 € à 100 €","url":"https://restaurant.michelin.fr/2fay1do/le-vivarais-vals-les-bains","isOnLaF":false},{"name":"La Grande Cascade","street":"Bois de Boulogne, Carrefour de Longchamp","postalcode":"75016","locality":"Paris","country":"France","address":"Bois de Boulogne, Carrefour de Longchamp ,75016 Paris ,France","chef":"Frédéric Robert","price":"Prix - De 89 € à 192 €","url":"https://restaurant.michelin.fr/2af5lql/la-grande-cascade-paris-16","isOnLaF":true,"nameOnLaF":"La Grande Cascade - Frédéric Robert","id":"122","urlOnLaF":"https://www.lafourchette.com/restaurant/undefined/122","geo":{"latitude":48.86379,"longitude":2.24011},"phoneNumber":"33-145273351","picture":"https://u.tfstatic.com/restaurant_photos/122/122/169/664/la-grande-cascade-frederic-robert-vue-de-la-salle-b6c3e.jpg"},{"name":"Le Pressoir","street":"7 r. de l'Hôpital","postalcode":"56890","locality":"Saint-Avé","country":"France","address":"7 r. de l'Hôpital ,56890 Saint-Avé ,France","chef":"Vincent David","price":"Prix - De 34 € à 100 €","url":"https://restaurant.michelin.fr/2b6sa1u/le-pressoir-saint-ave","isOnLaF":true,"nameOnLaF":"Le Pressoir","id":"18188","urlOnLaF":"https://www.lafourchette.com/restaurant/undefined/18188","geo":{"latitude":47.696658651383,"longitude":-2.7507700920105},"phoneNumber":"33-297608763","picture":"https://u.tfstatic.com/restaurant_photos/188/18188/169/664/le-pressoir-devanture-77bd1.jpg"},{"name":"Auberge de l'Ill","street":"2 rue de Collonges-au-Mont d'Or","postalcode":"68970","locality":"Illhaeusern","country":"France","address":"2 rue de Collonges-au-Mont d'Or ,68970 Illhaeusern ,France","chef":"Marc Haeberlin","price":"Prix - De 106 € à 276 €","url":"https://restaurant.michelin.fr/29nft26/auberge-de-lill-illhaeusern","isOnLaF":false},{"name":"Le Pavillon des Boulevards","street":"120 r. Croix-de-Seguey","postalcode":"33000","locality":"Bordeaux","country":"France","address":"120 r. Croix-de-Seguey ,33000 Bordeaux ,France","chef":"Thomas Morel","price":"Prix - De 35 € à 130 €","url":"https://restaurant.michelin.fr/28y19tl/le-pavillon-des-boulevards-bordeaux","isOnLaF":false},{"name":"Antoine","street":"10 av. de New-York","postalcode":"75116","locality":"Paris 16","country":"France","address":"10 av. de New-York ,75116 Paris 16 ,France","chef":"Thibault Sombardier","price":"Prix - De 48 € à 150 €","url":"https://restaurant.michelin.fr/2euo0rk/antoine-paris-16","isOnLaF":true,"nameOnLaF":"Antoine - Thibault Sombardier","id":"2185","urlOnLaF":"https://www.lafourchette.com/restaurant/undefined/2185","geo":{"latitude":48.86385,"longitude":2.29883},"phoneNumber":"33-140701928","picture":"https://u.tfstatic.com/restaurant_photos/185/2185/169/664/antoine-thibault-sombardier-84318.jpg"},{"name":"Le Jardin de Benjamin","street":"Route de Salernes","postalcode":"83510","locality":"Lorgues","country":"France","address":"Route de Salernes ,83510 Lorgues ,France","chef":"Benjamin Collombat","price":"Prix - De 55 € à 125 €","url":"https://restaurant.michelin.fr/xhr5bt96/le-jardin-de-benjamin-lorgues","isOnLaF":false},{"name":"Villa Archange","street":"Rue de l'Ouest","postalcode":"06110","locality":"Le Cannet","country":"France","address":"Rue de l'Ouest ,06110 Le Cannet ,France","chef":"Bruno Oger","price":"Prix - De 68 € à 195 €","url":"https://restaurant.michelin.fr/2f4ok2n/villa-archange-le-cannet","isOnLaF":true,"nameOnLaF":"La Villa Archange","id":"8685","urlOnLaF":"https://www.lafourchette.com/restaurant/undefined/8685","geo":{"latitude":43.573056354354,"longitude":7.0129699707031},"phoneNumber":"33-492181828","picture":"https://u.tfstatic.com/restaurant_photos/685/8685/169/664/la-villa-archange-salle-principale-la-villa-archange-41729.jpg"},{"name":"L'Arcane","street":"39 Rue Lamarck","postalcode":"75018","locality":"Paris","country":"France","address":"39 Rue Lamarck ,75018 Paris ,France","chef":"Laurent Magnin","price":"Prix - De 34 € à 105 €","url":"https://restaurant.michelin.fr/vx40rloc/larcane-paris-18","isOnLaF":true,"nameOnLaF":"L'Arcane","id":"214579","urlOnLaF":"https://www.lafourchette.com/restaurant/undefined/214579","geo":{"latitude":48.8892738,"longitude":2.3413227},"phoneNumber":"33-146068600","picture":"https://u.tfstatic.com/restaurant_photos/579/214579/169/664/l-arcane-vue-veranda-56672.jpg"},{"name":"Villa René Lalique","street":"18 Rue Bellevue","postalcode":"67290","locality":"Wingen-sur-Moder","country":"France","address":"18 Rue Bellevue ,67290 Wingen-sur-Moder ,France","chef":"Jean-Georges Klein","price":"Prix - De 78 € à 240 €","url":"https://restaurant.michelin.fr/t645yf86/villa-rene-lalique-wingen-sur-moder","isOnLaF":false},{"name":"Domaine des Hauts de Loire","street":"79 rue Gilbert Navard","postalcode":"41150","locality":"Onzain","country":"France","address":"79 rue Gilbert Navard ,41150 Onzain ,France","chef":"Rémy Giraud","price":"Prix - De 49 € à 165 €","url":"https://restaurant.michelin.fr/2cedaza/domaine-des-hauts-de-loire-onzain","isOnLaF":false},{"name":"Le Candille","street":"bd C. Rebuffel","postalcode":"06250","locality":"Mougins","country":"France","address":"bd C. Rebuffel ,06250 Mougins ,France","chef":"Xavier Burelle","price":"Prix - De 49 € à 135 €","url":"https://restaurant.michelin.fr/2a1fgdk/le-candille-mougins","isOnLaF":false},{"name":"Hostellerie Jérôme","street":"20 r. Comte de Cessole","postalcode":"06320","locality":"La Turbie","country":"France","address":"20 r. Comte de Cessole ,06320 La Turbie ,France","chef":"Bruno Cirino","price":"Prix - De 78 € à 138 €","url":"https://restaurant.michelin.fr/2b5e0ez/hostellerie-jerome-la-turbie","isOnLaF":false},{"name":"Le Haut-Allier","street":"LE PONT D ALLEYRAS","postalcode":"43580","locality":"Alleyras","country":"France","address":"LE PONT D ALLEYRAS ,43580 Alleyras ,France","chef":"Philippe Brun","price":"Prix - De 48 € à 90 €","url":"https://restaurant.michelin.fr/2bc2prd/le-haut-allier-le-pont-dalleyras","isOnLaF":false},{"name":"Loiseau des Ducs","street":"3 Rue Vauban","postalcode":"21000","locality":"Dijon","country":"France","address":"3 Rue Vauban ,21000 Dijon ,France","chef":"Louis-Philippe Vigilant","price":"Prix - De 23 € à 105 €","url":"https://restaurant.michelin.fr/2jd4ivca/loiseau-des-ducs-dijon","isOnLaF":true,"nameOnLaF":"Loiseau des Ducs","id":"29826","urlOnLaF":"https://www.lafourchette.com/restaurant/undefined/29826","geo":{"latitude":47.320757695777,"longitude":5.0411400794983},"phoneNumber":"33-380302809","picture":"https://u.tfstatic.com/restaurant_photos/826/29826/169/664/loiseau-des-ducs-la-salle-du-restaurant-452f0.jpg"},{"name":"L'Amphitryon","street":"127 r. du Col. -Müller","postalcode":"56100","locality":"Lorient","country":"France","address":"127 r. du Col. -Müller ,56100 Lorient ,France","chef":"Olivier Beurné","price":"Prix - De 50 € à 150 €","url":"https://restaurant.michelin.fr/29saut6/lamphitryon-lorient","isOnLaF":false},{"name":"Le Roc Alto","street":"Quartier La Ville","postalcode":"05350","locality":"SAINT-VERAN","country":"France","address":"Quartier La Ville ,05350 SAINT-VERAN ,France","chef":"Alexandre Lechêne","price":"Prix - De 65 € à 115 €","url":"https://restaurant.michelin.fr/8xdk7lc4/le-roc-alto-saint-veran","isOnLaF":false},{"name":"La Maison de Bournissac","street":"montée d'Eyragues","postalcode":"13550","locality":"Les Paluds-des-Noves","country":"France","address":"montée d'Eyragues ,13550 Les Paluds-des-Noves ,France","chef":"Christian Peyre","price":"Prix - De 34 € à 105 €","url":"https://restaurant.michelin.fr/2csipcf/la-maison-de-bournissac-noves","isOnLaF":false},{"name":"La Mare aux Oiseaux","street":"223 RUE DU CHEF DE L'ILE Fedrun","postalcode":"44720","locality":"Saint-Joachim","country":"France","address":"223 RUE DU CHEF DE L'ILE Fedrun ,44720 Saint-Joachim ,France","chef":"Eric Guérin","price":"Prix - De 55 € à 75 €","url":"https://restaurant.michelin.fr/2atvlv0/la-mare-aux-oiseaux-saint-joachim","isOnLaF":false},{"name":"Pur' - Jean-François Rouquette","street":"5 r. de la Paix","postalcode":"75002","locality":"Paris 02","country":"France","address":"5 r. de la Paix ,75002 Paris 02 ,France","chef":"ROUQUETTE Jean-François","price":"Prix - De 145 € à 275 €","url":"https://restaurant.michelin.fr/2dqiunf/pur-jean-francois-rouquette-paris-02","isOnLaF":false},{"name":"La Barbacane","street":"Place Auguste-Pierre-Pont","postalcode":"11000","locality":"Carcassonne","country":"France","address":"Place Auguste-Pierre-Pont ,11000 Carcassonne ,France","chef":"RYON Jérôme","price":"Prix - De 39 € à 145 €","url":"https://restaurant.michelin.fr/292xja3/la-barbacane-carcassonne","isOnLaF":true,"nameOnLaF":"Restaurant La Barbacane","id":"26494","urlOnLaF":"https://www.lafourchette.com/restaurant/undefined/26494","geo":{"latitude":43.205483,"longitude":2.362997},"phoneNumber":"33-468719871","picture":"https://u.tfstatic.com/restaurant_photos/494/26494/169/664/restaurant-la-barbacane-vue-de-la-salle-8860f.jpg"},{"name":"Le Coquillage","street":"Lieu-dit Le Buot","postalcode":"35350","locality":"Saint-Méloir-des-Ondes","country":"France","address":"Lieu-dit Le Buot ,35350 Saint-Méloir-des-Ondes ,France","chef":"Hugo Roellinger","price":"Prix - De 35 € à 139 €","url":"https://restaurant.michelin.fr/291q1xd/le-coquillage-saint-meloir-des-ondes","isOnLaF":false},{"name":"La Palme d'Or","street":"73 Boulevard de la Croisette","postalcode":"06400","locality":"Cannes","country":"France","address":"73 Boulevard de la Croisette ,06400 Cannes ,France","chef":"Christian Sinicropi","price":"Prix - De 74 € à 185 €","url":"https://restaurant.michelin.fr/292bk5u/la-palme-dor-cannes","isOnLaF":true,"nameOnLaF":"La Palme d'Or","id":"287357","urlOnLaF":"https://www.lafourchette.com/restaurant/undefined/287357","geo":{"latitude":43.5483439,"longitude":7.0309625},"phoneNumber":"33-493901334","picture":"https://u.tfstatic.com/restaurant_photos/357/287357/169/664/la-palme-d-or-la-vue-de-la-terrasse-180b8.jpg"},{"name":"Les Explorateurs","street":"place du Slalom","postalcode":"73440","locality":"VAL THORENS","country":"France","address":"place du Slalom ,73440 VAL THORENS ,France","chef":"Josselin JEANBLANC","price":"Prix - De 60 € à 100 €","url":"https://restaurant.michelin.fr/ui89zrwk/les-explorateurs-val-thorens","isOnLaF":false},{"name":"La Coopérative","street":"2A Route de Caladroy","postalcode":"66720","locality":"Bélesta","country":"France","address":"2A Route de Caladroy ,66720 Bélesta ,France","chef":"LEMAL Laurent","price":"Prix - De 39 € à 85 €","url":"https://restaurant.michelin.fr/3w3putu/la-cooperative-belesta","isOnLaF":false},{"name":"Maison Kieny","street":"7 Rue du Général de Gaulle","postalcode":"68400","locality":"Riedisheim","country":"France","address":"7 Rue du Général de Gaulle ,68400 Riedisheim ,France","chef":"Jean-Marc KIENY","price":"Prix - De 33 € à 80 €","url":"https://restaurant.michelin.fr/2a22p1u/maison-kieny-riedisheim","isOnLaF":true,"nameOnLaF":"Maison Kieny","id":"2971","urlOnLaF":"https://www.lafourchette.com/restaurant/undefined/2971","geo":{"latitude":47.749129969292,"longitude":7.3681402206421},"phoneNumber":"33-389440771","picture":"https://u.tfstatic.com/restaurant_photos/971/2971/169/664/la-poste-restaurant-a6604.jpg"},{"name":"L'Arnsbourg","street":"Untermuhlthal","postalcode":"57230","locality":"Baerenthal","country":"France","address":"Untermuhlthal ,57230 Baerenthal ,France","chef":"Fabien Mengus","price":"Prix - De 55 € à 133 €","url":"https://restaurant.michelin.fr/yjkdc8kf/larnsbourg-baerenthal","isOnLaF":false},{"name":"Ô Flaveurs","street":"Château de Chilly","postalcode":"74140","locality":"Douvaine","country":"France","address":"Château de Chilly ,74140 Douvaine ,France","chef":"Jérôme Mamet","price":"Prix - De 42 € à 105 €","url":"https://restaurant.michelin.fr/2dr6qsw/o-flaveurs-douvaine","isOnLaF":false},{"name":"Relais de la Poste","street":"24 avenue de Maremne","postalcode":"40140","locality":"Magescq","country":"France","address":"24 avenue de Maremne ,40140 Magescq ,France","chef":"Jean Coussau","price":"Prix - De 59 € à 127 €","url":"https://restaurant.michelin.fr/2c6dfrz/relais-de-la-poste-magescq","isOnLaF":false},{"name":"Christophe Bacquié","street":"Hotel du Castellet Route des Hauts du Camp","postalcode":"83330","locality":"Le Castellet","country":"France","address":"Hotel du Castellet Route des Hauts du Camp ,83330 Le Castellet ,France","chef":"Christophe Bacquié","price":"Prix - De 135 € à 240 €","url":"https://restaurant.michelin.fr/2bmu0gi/christophe-bacquie-le-castellet","isOnLaF":false},{"name":"Le Carmin","street":"4B Place Carnot","postalcode":"21200","locality":"Beaune","country":"France","address":"4B Place Carnot ,21200 Beaune ,France","chef":"Christophe Quéant","price":"Prix - De 25 € à 100 €","url":"https://restaurant.michelin.fr/8zb6c2d4/le-carmin-beaune","isOnLaF":false},{"name":"Hostellerie la Montagne","street":"10 rue Pisseloup","postalcode":"52330","locality":"COLOMBEY-LES-DEUX-EGLISES","country":"France","address":"10 rue Pisseloup ,52330 COLOMBEY-LES-DEUX-EGLISES ,France","chef":"Jean-Baptiste Natali","price":"Prix - De 28 € à 150 €","url":"https://restaurant.michelin.fr/298i34w/hostellerie-la-montagne-colombey-les-deux-eglises","isOnLaF":false},{"name":"Yoann Conte","street":"13 Vieille-Route-des-Pensières","postalcode":"74290","locality":"Veyrier-du-Lac","country":"France","address":"13 Vieille-Route-des-Pensières ,74290 Veyrier-du-Lac ,France","chef":"Yoann CONTE","price":"Prix - De 98 € à 225 €","url":"https://restaurant.michelin.fr/2fcm39b/yoann-conte-veyrier-du-lac","isOnLaF":true,"nameOnLaF":"Hôtel Restaurant Yoann CONTE, bord du lac","id":"15264","urlOnLaF":"https://www.lafourchette.com/restaurant/undefined/15264","geo":{"latitude":45.887655624383,"longitude":6.1730999946594},"phoneNumber":"33-450099749","picture":"https://u.tfstatic.com/restaurant_photos/264/15264/169/664/hotel-restaurant-yoann-conte-bord-du-lac-maison-bleue-bb7d3.jpg"},{"name":"Greuze","street":"1 r. A. Thibaudet","postalcode":"71700","locality":"Tournus","country":"France","address":"1 r. A. Thibaudet ,71700 Tournus ,France","chef":"Yohann Chapuis","price":"Prix - De 42 € à 135 €","url":"https://restaurant.michelin.fr/3uonmfw/greuze-tournus","isOnLaF":false},{"name":"Le Bouche à Oreille","street":"11 r. de la Chapelle","postalcode":"91150","locality":"Boutervilliers","country":"France","address":"11 r. de la Chapelle ,91150 Boutervilliers ,France","chef":"Aymeric Dreux","price":"Prix - De 24 € à 76 €","url":"https://restaurant.michelin.fr/s5edw9g/le-bouche-oreille-boutervilliers","isOnLaF":false},{"name":"Entre Vigne et Garrigue","street":"600 route de Saint Bruno","postalcode":"30131","locality":"Pujaut","country":"France","address":"600 route de Saint Bruno ,30131 Pujaut ,France","chef":"Serge et Maxime Chenet","price":"Prix - De 36 € à 100 €","url":"https://restaurant.michelin.fr/2etuup9/entre-vigne-et-garrigue-pujaut","isOnLaF":false},{"name":"Hostellerie de Plaisance","street":"5 place du Clocher","postalcode":"33330","locality":"Saint-Emilion","country":"France","address":"5 place du Clocher ,33330 Saint-Emilion ,France","chef":"Ronan Kervarrec","price":"Prix - De 68 € à 156 €","url":"https://restaurant.michelin.fr/2cp6y7n/hostellerie-de-plaisance-saint-emilion","isOnLaF":true,"nameOnLaF":"Hostellerie de Plaisance","id":"4904","urlOnLaF":"https://www.lafourchette.com/restaurant/undefined/4904","geo":{"latitude":44.89363,"longitude":-0.15689},"phoneNumber":"33-557550755","picture":"https://u.tfstatic.com/restaurant_photos/904/4904/169/664/hostellerie-de-plaisance-terrasse-9ad13.jpg"},{"name":"1131","street":"D 33","postalcode":"21360","locality":"La Bussière-sur-Ouche","country":"France","address":"D 33 ,21360 La Bussière-sur-Ouche ,France","chef":"Royer Guillaume","price":"Prix moyen - 98 €","url":"https://restaurant.michelin.fr/2e4epe8/1131-la-bussiere-sur-ouche","isOnLaF":false},{"name":"Le Relais des Moines","street":"route de Ste-Roseline","postalcode":"83460","locality":"Les Arcs","country":"France","address":"route de Ste-Roseline ,83460 Les Arcs ,France","chef":"Sébastien Sanjou","price":"Prix - De 44 € à 88 €","url":"https://restaurant.michelin.fr/28qae64/le-relais-des-moines-les-arcs","isOnLaF":true,"nameOnLaF":"Le Relais des Moines","id":"132","urlOnLaF":"https://www.lafourchette.com/restaurant/undefined/132","geo":{"latitude":43.46769,"longitude":6.50996},"phoneNumber":"33-494474093","picture":"https://u.tfstatic.com/restaurant_photos/132/132/169/664/le-relais-des-moines-vue-de-la-salle-34f61.jpg"},{"name":"Benoit","street":"20 Rue St-Martin","postalcode":"75004","locality":"Paris 04","country":"France","address":"20 Rue St-Martin ,75004 Paris 04 ,France","chef":"Fabienne Eymard","price":"Prix - De 39 € à 100 €","url":"https://restaurant.michelin.fr/2a8isn4/benoit-paris-04","isOnLaF":true,"nameOnLaF":"Benoit - Alain Ducasse","id":"25896","urlOnLaF":"https://www.lafourchette.com/restaurant/undefined/25896","geo":{"latitude":48.858523547492,"longitude":2.3499999046326},"phoneNumber":"33-142722576","picture":"https://u.tfstatic.com/restaurant_photos/896/25896/169/664/b6e2411755097cc2bcb78fbd74f0b2fe.jpg"},{"name":"Une Table au Sud","street":"2 quai du Port","postalcode":"13002","locality":"Marseille","country":"France","address":"2 quai du Port ,13002 Marseille ,France","chef":"Ludovic Turac","price":"Prix - De 34 € à 135 €","url":"https://restaurant.michelin.fr/29w4kky/une-table-au-sud-marseille-02","isOnLaF":false},{"name":"Le Refuge des Gourmets","street":"90 route des Framboises","postalcode":"74140","locality":"Machilly","country":"France","address":"90 route des Framboises ,74140 Machilly ,France","chef":"Jean-Marie et Hubert Chanove","price":"Prix - De 35 € à 103 €","url":"https://restaurant.michelin.fr/29uv8a7/le-refuge-des-gourmets-machilly","isOnLaF":true,"nameOnLaF":"Le Refuge des Gourmets","id":"10332","urlOnLaF":"https://www.lafourchette.com/restaurant/undefined/10332","geo":{"latitude":46.250368183685,"longitude":6.3291501998901},"phoneNumber":"33-450435387","picture":"https://u.tfstatic.com/restaurant_photos/332/10332/169/664/le-refuge-des-gourmets-entree-du-restaurant-2017-e18fb.jpg"},{"name":"La Madeleine","street":"1 Rue Alsace-Lorraine","postalcode":"89100","locality":"Sens","country":"France","address":"1 Rue Alsace-Lorraine ,89100 Sens ,France","chef":"Patrick Gauthier","price":"Prix - De 49.5 € à 67 €","url":"https://restaurant.michelin.fr/2azofoh/la-madeleine-sens","isOnLaF":false},{"name":"Au Vieux Couvent","street":"6 r. des Chanoines","postalcode":"67860","locality":"Rhinau","country":"France","address":"6 r. des Chanoines ,67860 Rhinau ,France","chef":"Alexis Albrecht","price":"Prix - De 37 € à 110 €","url":"https://restaurant.michelin.fr/2aogs9u/au-vieux-couvent-rhinau","isOnLaF":true,"nameOnLaF":"Au Vieux Couvent - Alexis Albrecht","id":"15068","urlOnLaF":"https://www.lafourchette.com/restaurant/undefined/15068","geo":{"latitude":48.31725,"longitude":7.70638},"phoneNumber":"33-388746115","picture":"https://u.tfstatic.com/restaurant_photos/068/15068/169/664/au-vieux-couvent-alexis-albrecht-vue-de-la-salle-108a8.jpg"},{"name":"La Rotonde","street":"200 avenue du Casino","postalcode":"69890","locality":"LA-TOUR-DE-SALVAGNY","country":"France","address":"200 avenue du Casino ,69890 LA-TOUR-DE-SALVAGNY ,France","chef":"Jean-François MALLE","price":"Prix - De 37 € à 135 €","url":"https://restaurant.michelin.fr/29uqy46/la-rotonde-la-tour-de-salvagny","isOnLaF":true,"nameOnLaF":"La Rotonde - Domaine le Lyon Vert","id":"73740","urlOnLaF":"https://www.lafourchette.com/restaurant/undefined/73740","geo":{"latitude":45.7883189,"longitude":4.7314615},"phoneNumber":"33-478877979","picture":"https://u.tfstatic.com/restaurant_photos/740/73740/169/664/la-rotonde-domaine-le-lyon-vert-vue-de-la-salle-9943b.jpg"},{"name":"JAN","street":"12 Rue Lascaris","postalcode":"06000","locality":"Nice","country":"France","address":"12 Rue Lascaris ,06000 Nice ,France","chef":"Jan Hendrik van der Westhuizen","price":"Prix - De 10 € à 79 €","url":"https://restaurant.michelin.fr/38z104i7/jan-nice","isOnLaF":false},{"name":"Auberge La Pomme d'Api","street":"49 r. Verderel","postalcode":"29250","locality":"Saint-Pol-de-Léon","country":"France","address":"49 r. Verderel ,29250 Saint-Pol-de-Léon ,France","chef":"Jérémie Le Calvez","price":"Prix - De 25 € à 82 €","url":"https://restaurant.michelin.fr/2aw36e7/auberge-la-pomme-dapi-saint-pol-de-leon","isOnLaF":false},{"name":"Maximin Hellio","street":"64 Rue Gambetta","postalcode":"14800","locality":"DEAUVILLE","country":"France","address":"64 Rue Gambetta ,14800 DEAUVILLE ,France","chef":"Hellio Maximin","price":"Prix - De 35 € à 125 €","url":"https://restaurant.michelin.fr/u945qtuv/maximin-hellio-deauville","isOnLaF":false},{"name":"Le Corot","street":"55 Rue de Versailles","postalcode":"92410","locality":"VILLE-D'AVRAY","country":"France","address":"55 Rue de Versailles ,92410 VILLE-D'AVRAY ,France","chef":"Rémi Chambard","price":"Prix - De 48 € à 110 €","url":"https://restaurant.michelin.fr/2aiulws5/le-corot-ville-davray","isOnLaF":true,"nameOnLaF":"Le Corot - Hôtel Les Étangs de Corot","id":"5623","urlOnLaF":"https://www.lafourchette.com/restaurant/undefined/5623","geo":{"latitude":48.822128730684,"longitude":2.1832299232483},"phoneNumber":"33-141153700","picture":"https://u.tfstatic.com/restaurant_photos/623/5623/169/664/le-corot-hotel-les-etangs-de-corot-le-corot-interieur-16904.jpg"},{"name":"L'Oasis","street":"6 rue Jean-Honoré Carle","postalcode":"06210","locality":"La Napoule","country":"France","address":"6 rue Jean-Honoré Carle ,06210 La Napoule ,France","chef":"Stéphane, Antoine et François Raimbault","price":"Prix - De 49 € à 149 €","url":"https://restaurant.michelin.fr/29v9df2/loasis-mandelieu-la-napoule","isOnLaF":true,"nameOnLaF":"L'Oasis - Stéphane Raimbault","id":"682","urlOnLaF":"https://www.lafourchette.com/restaurant/undefined/682","geo":{"latitude":43.52566,"longitude":6.94285},"phoneNumber":"33-493499552","picture":"https://u.tfstatic.com/restaurant_photos/682/682/169/664/l-oasis-stephane-raimbault-salle-groupe-a439e.jpg"},{"name":"Hostellerie Les Gorges de Pennafort","street":"8660 RD 25","postalcode":"83830","locality":"Callas","country":"France","address":"8660 RD 25 ,83830 Callas ,France","chef":"Philippe Da Silva","price":"Prix - De 59 € à 160 €","url":"https://restaurant.michelin.fr/2blmwvy/hostellerie-les-gorges-de-pennafort-callas","isOnLaF":false},{"name":"Hostellerie Bérard","street":"Avenue Gabriel-Péri","postalcode":"83740","locality":"LA-CADIERE-D'AZUR","country":"France","address":"Avenue Gabriel-Péri ,83740 LA-CADIERE-D'AZUR ,France","chef":"Jean-François Bérard","price":"Prix - De 36 € à 143 €","url":"https://restaurant.michelin.fr/2bl33gu/hostellerie-berard-la-cadiere-dazur","isOnLaF":true,"nameOnLaF":"Hostellerie Bérard & spa","id":"416","urlOnLaF":"https://www.lafourchette.com/restaurant/undefined/416","geo":{"latitude":43.19638027601,"longitude":5.7565197944641},"phoneNumber":"33-494901143","picture":"https://u.tfstatic.com/restaurant_photos/416/416/169/664/hostellerie-berard-spa-aprecu-de-l-entree-be7b3.jpg"},{"name":"Georges Blanc","street":"pl. du Marché","postalcode":"01540","locality":"Vonnas","country":"France","address":"pl. du Marché ,01540 Vonnas ,France","chef":"Georges BLANC","price":"Prix - De 180 € à 275 €","url":"https://restaurant.michelin.fr/2d3ergs/georges-blanc-vonnas","isOnLaF":false},{"name":"Le Hittau","street":"1 rue du Nouaou","postalcode":"40230","locality":"SAINT-VINCENT-DE-TYROSSE","country":"France","address":"1 rue du Nouaou ,40230 SAINT-VINCENT-DE-TYROSSE ,France","chef":"Yannick Duc","price":"Prix - De 26 € à 82 €","url":"https://restaurant.michelin.fr/2d9288s/le-hittau-saint-vincent-de-tyrosse","isOnLaF":false},{"name":"Ed.Em","street":"4 imp. Chenevottes","postalcode":"21190","locality":"Chassagne-Montrachet","country":"France","address":"4 imp. Chenevottes ,21190 Chassagne-Montrachet ,France","chef":"Edouard Mignot","price":"Prix - De 35 € à 98 €","url":"https://restaurant.michelin.fr/295xqfd/edem-chassagne-montrachet","isOnLaF":false},{"name":"Le Pergolèse","street":"40 Rue Pergolèse","postalcode":"75116","locality":"Paris","country":"France","address":"40 Rue Pergolèse ,75116 Paris ,France","chef":"Stéphane Gaborieau","price":"Prix - De 50 € à 125 €","url":"https://restaurant.michelin.fr/2aeinde/le-pergolese-paris-16","isOnLaF":true,"nameOnLaF":"Le Petit Pergolèse","id":"8656","urlOnLaF":"https://www.lafourchette.com/restaurant/undefined/8656","geo":{"latitude":48.874377749146,"longitude":2.2828099727631},"phoneNumber":"33-145002366","picture":"https://u.tfstatic.com/restaurant_photos/656/8656/169/664/le-petit-pergolese-vue-de-la-salle-e52f0.jpg"},{"name":"Le Cloître","street":"Le Cloitre","postalcode":"04300","locality":"Mane","country":"France","address":"Le Cloitre ,04300 Mane ,France","chef":"Jerome Roy","price":"Prix - De 75 € à 135 €","url":"https://restaurant.michelin.fr/2ep5ghq/le-cloitre-mane","isOnLaF":false},{"name":"William Frachot","street":"5 rue Michelet","postalcode":"21000","locality":"DIJON","country":"France","address":"5 rue Michelet ,21000 DIJON ,France","chef":"","price":"Prix - De 55 € à 90 €","url":"https://restaurant.michelin.fr/2buprmi/william-frachot-dijon","isOnLaF":true,"nameOnLaF":"Restaurant William Frachot","id":"3931","urlOnLaF":"https://www.lafourchette.com/restaurant/undefined/3931","geo":{"latitude":47.321163689622,"longitude":5.035530090332},"phoneNumber":"33-380508888","picture":"https://u.tfstatic.com/restaurant_photos/931/3931/169/664/2124c833ddb7f756f04a044a3d151acb.jpg"},{"name":"Le Kléber","street":"6 r. A. -Dumont","postalcode":"26400","locality":"Crest","country":"France","address":"6 r. A. -Dumont ,26400 Crest ,France","chef":"Sébastien Bonnet","price":"Prix - De 35 € à 74 €","url":"https://restaurant.michelin.fr/29bkalt/le-kleber-crest","isOnLaF":false},{"name":"Le Pré Catelan","street":"Route de Suresnes","postalcode":"75016","locality":"Paris","country":"France","address":"Route de Suresnes ,75016 Paris ,France","chef":"","price":"Prix - De 130 € à 280 €","url":"https://restaurant.michelin.fr/2af46v7/le-pre-catelan-paris-16","isOnLaF":false},{"name":"Assiette Champenoise","street":"40 av. Paul Vaillant-Couturier","postalcode":"51430","locality":"Tinqueux","country":"France","address":"40 av. Paul Vaillant-Couturier ,51430 Tinqueux ,France","chef":"Arnaud Lallement","price":"Prix - De 95 € à 185 €","url":"https://restaurant.michelin.fr/2cliodi/assiette-champenoise-tinqueux","isOnLaF":true,"nameOnLaF":"L'Assiette Champenoise","id":"3806","urlOnLaF":"https://www.lafourchette.com/restaurant/undefined/3806","geo":{"latitude":49.24747867784,"longitude":4.0030798912048},"phoneNumber":"33-326846464","picture":"https://u.tfstatic.com/restaurant_photos/806/3806/169/664/l-assiette-champenoise-apercu-de-l-interieur-16f5f.jpg"},{"name":"Restaurant du Château","street":"15 avenue des Reynats","postalcode":"24650","locality":"Chancelade","country":"France","address":"15 avenue des Reynats ,24650 Chancelade ,France","chef":"","price":"Prix - De 75 € à 85 €","url":"https://restaurant.michelin.fr/2chv2z6/restaurant-du-chateau-chancelade","isOnLaF":false},{"name":"Le Violon d'Ingres","street":"135 Rue Saint-Dominique","postalcode":"75007","locality":"Paris","country":"France","address":"135 Rue Saint-Dominique ,75007 Paris ,France","chef":"Christian Constant","price":"Prix - De 49 € à 130 €","url":"https://restaurant.michelin.fr/2aa5u1w/le-violon-dingres-paris-07","isOnLaF":true,"nameOnLaF":"Le Violon d'Ingres - Christian Constant","id":"205737","urlOnLaF":"https://www.lafourchette.com/restaurant/undefined/205737","geo":{"latitude":48.8582586,"longitude":2.3019069},"phoneNumber":"33-145551505","picture":"https://u.tfstatic.com/restaurant_photos/737/205737/169/664/le-violon-d-ingres-christian-constant-vue-de-la-salle-d2e50.jpg"},{"name":"Les Tablettes de Jean-Louis Nomicos","street":"16 Avenue Bugeaud","postalcode":"75016","locality":"Paris","country":"France","address":"16 Avenue Bugeaud ,75016 Paris ,France","chef":"","price":"Prix - De 58 € à 141 €","url":"https://restaurant.michelin.fr/2fdwgd3/les-tablettes-de-jean-louis-nomicos-paris-16","isOnLaF":false},{"name":"Chez Michèle","street":"57 rue Principale","postalcode":"57810","locality":"Languimberg","country":"France","address":"57 rue Principale ,57810 Languimberg ,France","chef":"Bruno Poiré","price":"Prix - De 25 € à 140 €","url":"https://restaurant.michelin.fr/29pia6z/chez-michele-languimberg","isOnLaF":true,"nameOnLaF":"Chez Michèle","id":"16363","urlOnLaF":"https://www.lafourchette.com/restaurant/undefined/16363","geo":{"latitude":48.745760926579,"longitude":6.8586001396179},"phoneNumber":"33-387039225","picture":"https://u.tfstatic.com/restaurant_photos/363/16363/169/664/Suggestion-de-plat.jpg"},{"name":"Le Parc Les Crayères","street":"64 Boulevard Henry Vasnier","postalcode":"51100","locality":"Reims","country":"France","address":"64 Boulevard Henry Vasnier ,51100 Reims ,France","chef":"PHILIPPE MILLE","price":"Prix - De 69 € à 190 €","url":"https://restaurant.michelin.fr/2clh5yg/le-parc-les-crayeres-reims","isOnLaF":false},{"name":"1217","street":"le bourg","postalcode":"69620","locality":"Bagnols","country":"France","address":"le bourg ,69620 Bagnols ,France","chef":"Jean-Alexandre OUARATTA","price":"Prix - De 65 € à 140 €","url":"https://restaurant.michelin.fr/2bfuk4c/1217-bagnols","isOnLaF":true,"nameOnLaF":"Le 1217","id":"28453","urlOnLaF":"https://www.lafourchette.com/restaurant/undefined/28453","geo":{"latitude":45.916882638902,"longitude":4.6084799766541},"phoneNumber":"33-474714000","picture":"https://u.tfstatic.com/restaurant_photos/453/28453/169/664/le-1217-le-chateau-eb234.jpg"},{"name":"Le P'tit Polyte","street":"2 Rue de la Chapelle","postalcode":"38860","locality":"Les Deux Alpes","country":"France","address":"2 Rue de la Chapelle ,38860 Les Deux Alpes ,France","chef":"Mathew Hegarty","price":"Prix - De 65 € à 105 €","url":"https://restaurant.michelin.fr/2bufvvg87/le-ptit-polyte-les-deux-alpes","isOnLaF":false},{"name":"Pont de l'Ouysse","street":"D23","postalcode":"46200","locality":"Lacave","country":"France","address":"D23 ,46200 Lacave ,France","chef":"Daniel et Stéphane Chambon","price":"Prix - De 60 € à 89 €","url":"https://restaurant.michelin.fr/29p8ja1/pont-de-louysse-lacave","isOnLaF":false},{"name":"Hostellerie du Rosenmeer","street":"45 avenue de la Gare","postalcode":"67560","locality":"ROSHEIM","country":"France","address":"45 avenue de la Gare ,67560 ROSHEIM ,France","chef":"","price":"Prix - De 36 € à 80 €","url":"https://restaurant.michelin.fr/2cnfm96/hostellerie-du-rosenmeer-rosheim","isOnLaF":false},{"name":"Les Hautes Roches","street":"86 quai de Loire","postalcode":"37210","locality":"Rochecorbon","country":"France","address":"86 quai de Loire ,37210 Rochecorbon ,France","chef":"Didier Edon","price":"Prix - De 60 € à 80 €","url":"https://restaurant.michelin.fr/2cyg6yb/les-hautes-roches-rochecorbon","isOnLaF":true,"nameOnLaF":"Les Hautes Roches","id":"2819","urlOnLaF":"https://www.lafourchette.com/restaurant/undefined/2819","geo":{"latitude":47.410163829619,"longitude":0.77294999361038},"phoneNumber":"33-247528888","picture":"https://u.tfstatic.com/restaurant_photos/819/2819/169/664/Specialite-de-la-maison.jpg"},{"name":"Radio","street":"43 av. P. et M.-Curie","postalcode":"63400","locality":"Chamalières","country":"France","address":"43 av. P. et M.-Curie ,63400 Chamalières ,France","chef":"Wilfrid CHAPLAIN ","price":"Prix - De 30 € à 88 €","url":"https://restaurant.michelin.fr/2bqajf6/radio-chamalieres","isOnLaF":false}]